Municipio,Data,Precipitacao,DiaSemChuva,Mes,DiaSemana,Estacao_Seca,Municipio_Freq,Latitude,Longitude,media_focos_mes_hist,prob_fogo,risco
NIQUELÂNDIA,2026-06-19,0.0,2,6,4,1,0.0702666861597576,-14.555710756178348,-48.323001755813664,16.54513888888889,0.9646833202087246,ALTO
CAVALCANTE,2026-06-19,0.0,2,6,4,1,0.0610547238995633,-13.605372533203356,-47.74998846789225,13.759398496240602,0.9419954631416224,ALTO
CRISTALINA,2026-06-19,0.0,3,6,4,1,0.0132176447915789,-16.729108968671913,-47.51949739378938,4.318181818181818,0.9127649176428663,ALTO
MINEIROS,2026-06-19,0.0,2,6,4,1,0.0275280840801993,-17.758011413392754,-52.819223041509886,9.509174311926603,0.9102112284758653,ALTO
BARRO ALTO,2026-06-19,0.0,2,6,4,1,0.0070197278941702,-14.9246949793272,-48.89831318663708,2.274193548387097,0.9039090442353567,ALTO
CAIAPÔNIA,2026-06-19,0.0,3,6,4,1,0.0142749973049324,-17.02333953529842,-51.80903000805655,7.114832535885167,0.8979475252976452,ALTO
IPAMERI,2026-06-19,0.0,4,6,4,1,0.0082203250915953,-17.453901960073118,-47.994679662267664,5.139896373056994,0.8949584049032026,ALTO
JATAÍ,2026-06-19,0.0,3,6,4,1,0.0181485107721479,-17.885693026802887,-51.7369228480587,4.259668508287293,0.8933841428635227,ALTO
RIO VERDE,2026-06-19,0.0,3,6,4,1,0.020077883759154,-17.80973337888139,-51.01793797116709,5.575418994413408,0.8932431744913986,ALTO
FORMOSA,2026-06-19,0.0,2,6,4,1,0.0326974450760009,-15.366385635807053,-47.255312528185605,4.150837988826815,0.8917521432225204,ALTO
LUZIÂNIA,2026-06-19,0.0,3,6,4,1,0.0070248965167913,-16.41158591502055,-47.9402484582945,3.549504950495049,0.8891292441270018,ALTO
NOVA CRIXÁS,2026-06-19,0.0,2,6,4,1,0.0140461011602819,-14.109081491545986,-50.60644025233707,11.0,0.8630278872624652,ALTO
PORANGATU,2026-06-19,0.0,1,6,4,1,0.0130825222287691,-13.295151272205969,-49.25062116604489,8.9,0.8595802156280378,ALTO
SÃO JOÃO D'ALIANÇA,2026-06-19,0.0,2,6,4,1,0.0174500083436336,-14.47092130372994,-47.44566869827519,4.917582417582418,0.852577392330571,ALTO
CATALÃO,2026-06-19,0.0,4,6,4,1,0.0067051802889407,-17.859620758114687,-47.65795514226879,6.779220779220779,0.8525537754647308,ALTO
PLANALTINA,2026-06-19,0.0,2,6,4,1,0.0220286696113048,-15.297339114149969,-47.82804373552916,6.205128205128205,0.8461177983012694,ALTO
FLORES DE GOIÁS,2026-06-19,0.0,2,6,4,1,0.0204832514475835,-14.69582900883936,-46.88334718801356,4.961538461538462,0.8324389374449652,ALTO
GOIÂNIA,2026-06-19,0.0,3,6,4,1,0.0056264149104425,-16.627186847284758,-49.26892340187793,3.121387283236994,0.8278848323900532,ALTO
PARAÚNA,2026-06-19,0.0,3,6,4,1,0.0093854803053326,-17.025229406670206,-50.64132283176662,7.314814814814815,0.8001068812738967,ALTO
SERRANÓPOLIS,2026-06-19,0.0,3,6,4,1,0.0084580817321678,-18.245444254046,-52.13858145093347,3.9432624113475176,0.8000360030679396,ALTO
MONTE ALEGRE DE GOIÁS,2026-06-19,0.0,3,6,4,1,0.0256814090551314,-13.350813143278856,-46.98514054795142,5.746268656716418,0.7981685961603937,ALTO
ITUMBIARA,2026-06-19,0.0,3,6,4,1,0.0076968174575397,-18.36303539838409,-49.51316782799183,5.170940170940171,0.7923347282780686,ALTO
SÃO MIGUEL DO ARAGUAIA,2026-06-19,0.0,1,6,4,1,0.0108009445288652,-13.03457954651454,-50.31087167757311,5.801418439716312,0.7888007472808134,ALTO
PADRE BERNARDO,2026-06-19,0.0,2,6,4,1,0.0171465363583066,-15.387542873502616,-48.24234321428453,3.821138211382114,0.7883771244157812,ALTO
URUAÇU,2026-06-19,0.0,3,6,4,1,0.0084898318425548,-14.424659723475168,-49.081429732121045,2.8306451612903225,0.7697895944966073,ALTO
MINAÇU,2026-06-19,0.0,2,6,4,1,0.0177172999706126,-13.517945024690189,-48.337109129169214,5.321428571428571,0.7669836814864469,ALTO
CRIXÁS,2026-06-19,0.0,2,6,4,1,0.0142565379384284,-14.80659158075239,-50.06889904182484,3.504,0.7657490434364624,ALTO
DOVERLÂNDIA,2026-06-19,0.0,3,6,4,1,0.0061203875580916,-16.786897298262215,-52.47629182084975,6.219512195121951,0.7565559847198569,ALTO
ALTO PARAÍSO DE GOIÁS,2026-06-19,0.0,2,6,4,1,0.0136045531135044,-14.194794675020932,-47.58800995260268,5.992063492063492,0.7499200535756576,ALTO
SÃO DOMINGOS,2026-06-19,0.0,1,6,4,1,0.0184815177438814,-13.484742034647564,-46.3952483067699,5.164179104477612,0.7493377739737915,ALTO
CAMPO ALEGRE DE GOIÁS,2026-06-19,0.0,5,6,4,1,0.0035722566058688,-17.478774899824252,-47.74286914863833,3.197674418604651,0.7467114699846118,ALTO
JUSSARA,2026-06-19,0.0,4,6,4,1,0.0097384233928906,-15.53774041723269,-51.30291227238109,7.694117647058824,0.7371594695279681,ALTO
CALDAS NOVAS,2026-06-19,0.0,3,6,4,1,0.0032953661083077,-17.728174181219167,-48.609976896734885,3.2033898305084745,0.7131052481464571,ALTO
ÁGUA FRIA DE GOIÁS,2026-06-19,0.0,2,6,4,1,0.0101031804750111,-14.959240097702764,-47.8720093319421,3.768421052631579,0.7085765482286842,ALTO
NOVA ROMA,2026-06-19,0.0,2,6,4,1,0.0121329724157994,-13.714942640576536,-47.01834764226104,5.73015873015873,0.7078168246723175,ALTO
SILVÂNIA,2026-06-19,0.0,3,6,4,1,0.0024809388581478,-16.63901076782678,-48.5989267608625,2.824074074074074,0.7033777823014684,ALTO
BOM JARDIM DE GOIÁS,2026-06-19,0.0,3,6,4,1,0.006982809161162,-16.169600227866493,-52.08811808319062,3.295238095238095,0.7016631152961832,ALTO
VILA BOA,2026-06-19,0.0,5,6,4,1,0.0051088142736682,-14.984552679127855,-47.06563145675107,4.597402597402597,0.6897742209442275,MÉDIO
ANÁPOLIS,2026-06-19,0.0,3,6,4,1,0.0025665903187268,-16.327248789404404,-48.95399874795129,2.279279279279279,0.6895086016216703,MÉDIO
VILA PROPÍCIO,2026-06-19,0.0,2,6,4,1,0.0090901304412674,-15.174992710889834,-48.74270162202432,3.1449275362318843,0.6792804405192503,MÉDIO
ARUANÃ,2026-06-19,0.0,2,6,4,1,0.0055090133394766,-14.80056233565119,-50.9660645783424,5.5,0.6717084754090408,MÉDIO
ANICUNS,2026-06-19,0.0,4,6,4,1,0.0028693239293936,-16.386618352812665,-49.96569453715062,2.6095238095238096,0.6701629619411144,MÉDIO
GOIÁS,2026-06-19,0.0,3,6,4,1,0.006679337175835,-15.910637681321438,-50.22587344128038,3.4526315789473685,0.6693004445692008,MÉDIO
SANTA HELENA DE GOIÁS,2026-06-19,0.0,4,6,4,1,0.0065552902329276,-17.809635495091406,-50.550434417318826,5.549295774647887,0.6663682780020289,MÉDIO
PIRACANJUBA,2026-06-19,0.0,3,6,4,1,0.0031550749228767,-17.359788624438703,-49.008963459189445,2.4878048780487805,0.65177895505693,MÉDIO
CEZARINA,2026-06-19,0.0,5,6,4,1,0.0010817188771388,-17.034689299189036,-49.7756844762151,1.1111111111111112,0.6484194834417218,MÉDIO
ARAGUAPAZ,2026-06-19,0.0,2,6,4,1,0.0072685601546451,-15.139882625109504,-50.2765366521584,3.544117647058824,0.6470848345900743,MÉDIO
MIMOSO DE GOIÁS,2026-06-19,0.0,2,6,4,1,0.0153441638128486,-15.0302729730905,-48.33825202036574,5.0,0.6444622613504318,MÉDIO
JARAGUÁ,2026-06-19,0.0,2,6,4,1,0.0027460153611464,-15.684175632573451,-49.36723779617128,2.119047619047619,0.6428031876354523,MÉDIO
PIRENÓPOLIS,2026-06-19,0.0,2,6,4,1,0.0060856839490639,-15.78834605245366,-48.98248540918748,2.509433962264151,0.6422259059470242,MÉDIO
POSSE,2026-06-19,0.0,3,6,4,1,0.0078828878719008,-14.196997106543726,-46.3411011854588,3.027027027027027,0.6409673416211438,MÉDIO
MORRINHOS,2026-06-19,0.0,3,6,4,1,0.0046879407173752,-17.747080471125827,-49.18201398317284,2.7681159420289854,0.6400338335048605,MÉDIO
HIDROLÂNDIA,2026-06-19,0.0,5,6,4,1,0.001757331691188,-17.00595303936355,-49.2631795818899,2.1594202898550723,0.6342524601261275,MÉDIO
ALVORADA DO NORTE,2026-06-19,0.0,2,6,4,1,0.0069111868191262,-14.578913930149612,-46.62741788371978,4.3125,0.6297432239235521,MÉDIO
CAMPINAÇU,2026-06-19,0.0,1,6,4,1,0.0107566420492554,-13.868181231222769,-48.55699372818981,7.882352941176471,0.6294765944109173,MÉDIO
MARA ROSA,2026-06-19,0.0,2,6,4,1,0.0037022105460575,-13.999770100704,-49.390664925569126,2.625,0.6268240237235693,MÉDIO
SENADOR CANEDO,2026-06-19,0.0,5,6,4,1,0.0015070226813928,-16.72174558705297,-49.12425814633367,2.8767123287671232,0.6250369449958841,MÉDIO
MONTIVIDIU DO NORTE,2026-06-19,0.0,2,6,4,1,0.0055422401991839,-13.157797966650936,-48.70583895092373,7.462962962962963,0.6237413772329962,MÉDIO
PIRANHAS,2026-06-19,0.0,3,6,4,1,0.0030155221121059,-16.447787530113146,-51.854078169184085,3.371794871794872,0.6232166174573742,MÉDIO
ABADIÂNIA,2026-06-19,0.0,3,6,4,1,0.0021287341452501,-16.19915712906121,-48.70814271576387,2.414634146341464,0.6179887707220739,MÉDIO
ORIZONA,2026-06-19,0.0,4,6,4,1,0.0020201930702061,-17.02708940860277,-48.16569268300261,2.0625,0.6155290939654642,MÉDIO
SÍTIO D'ABADIA,2026-06-19,0.0,2,6,4,1,0.0063869408104104,-14.729138480039394,-46.29929381822457,5.327586206896552,0.6128234081832636,MÉDIO
ITABERAÍ,2026-06-19,0.0,2,6,4,1,0.0036438789479047,-16.076051965486666,-49.86875528845477,3.0,0.6121905795998299,MÉDIO
COCALZINHO DE GOIÁS,2026-06-19,0.0,2,6,4,1,0.0042582066651603,-15.644454575968023,-48.59695917813067,2.492063492063492,0.6018100627600452,MÉDIO
CABECEIRAS,2026-06-19,0.0,2,6,4,1,0.0021161817760273,-15.753711869204832,-46.99550025639795,4.791666666666667,0.6015616817266082,MÉDIO
GOIANÉSIA,2026-06-19,0.0,2,6,4,1,0.0033721570729647,-15.235935983775684,-49.19339896780853,2.430379746835443,0.5995943190205733,MÉDIO
COLINAS DO SUL,2026-06-19,0.0,2,6,4,1,0.0162671321380524,-13.94148455899416,-48.086108285372966,5.053571428571429,0.5883951254932159,MÉDIO
MUNDO NOVO,2026-06-19,0.0,3,6,4,1,0.0027504456091074,-13.777534650060309,-50.25180240334917,2.9692307692307693,0.5874111736917017,MÉDIO
SÃO LUIZ DO NORTE,2026-06-19,0.0,3,6,4,1,0.0024484503731007,-14.905980936295272,-49.283790673643686,3.3375,0.5849885945640353,MÉDIO
ITAPACI,2026-06-19,0.0,2,6,4,1,0.0027290327439626,-14.955491253186096,-49.62493326485581,2.6666666666666665,0.5831179071799079,MÉDIO
APORÉ,2026-06-19,0.0,3,6,4,1,0.0023280953034941,-18.7073526543005,-52.08304620766298,4.466666666666667,0.5810041871582111,MÉDIO
GOIATUBA,2026-06-19,0.0,3,6,4,1,0.0047403653182468,-17.991078799174332,-49.72506729400575,2.75,0.5803247249521849,MÉDIO
IACIARA,2026-06-19,0.0,2,6,4,1,0.0029911557483205,-14.108153980696324,-46.79592329445353,7.594202898550725,0.5783183771493742,MÉDIO
NOVA GLÓRIA,2026-06-19,0.0,3,6,4,1,0.0023332639261152,-15.080904022970325,-49.5127373729181,2.68,0.5760458683796759,MÉDIO
SANTA ISABEL,2026-06-19,0.0,2,6,4,1,0.0024432817504795,-15.200546008094864,-49.40043024932847,6.6415094339622645,0.5741153474538622,MÉDIO
MONTES CLAROS DE GOIÁS,2026-06-19,0.0,2,6,4,1,0.0036261579560608,-15.873326931416043,-51.59664771775818,4.019230769230769,0.5724790512945045,MÉDIO
SANTA TEREZINHA DE GOIÁS,2026-06-19,0.0,2,6,4,1,0.0023960257722291,-14.32429478078316,-49.65930833489798,4.050847457627119,0.5719197051700874,MÉDIO
APARECIDA DE GOIÂNIA,2026-06-19,0.0,3,6,4,1,0.0013357197602349,-16.80602601231046,-49.24588428522596,1.7731958762886595,0.5714483396402068,MÉDIO
ITARUMÃ,2026-06-19,0.0,3,6,4,1,0.0046421614884451,-18.86462245523424,-51.33580667861621,4.627118644067797,0.5701222256674063,MÉDIO
SANTO ANTÔNIO DO DESCOBERTO,2026-06-19,0.0,2,6,4,1,0.002381996653686,-16.02598615253068,-48.28800335138823,2.3076923076923075,0.5698564377315682,MÉDIO
TRINDADE,2026-06-19,0.0,5,6,4,1,0.0016598662360465,-16.650075769653657,-49.51836291274552,1.6708860759493671,0.5687939425602841,MÉDIO
EDÉIA,2026-06-19,0.0,4,6,4,1,0.0040093744046854,-17.509361464280108,-50.00172531667008,2.9791666666666665,0.5647908114349479,MÉDIO
ACREÚNA,2026-06-19,0.0,3,6,4,1,0.0050453140528942,-17.48826970830257,-50.32369400069289,3.42,0.5587645749168939,MÉDIO
PALMEIRAS DE GOIÁS,2026-06-19,0.0,3,6,4,1,0.0026522417793057,-16.814514481269185,-49.9450199537401,2.2916666666666665,0.5575508888722759,MÉDIO
AMARALINA,2026-06-19,0.0,3,6,4,1,0.0035235238782981,-13.848529827205882,-49.56903226128027,2.5098039215686274,0.5538299309258142,MÉDIO
NOVO PLANALTO,2026-06-19,0.0,4,6,4,1,0.0015786450234286,-13.224864863175409,-49.711211164352655,4.092307692307692,0.5496368717731303,MÉDIO
BONÓPOLIS,2026-06-19,0.0,1,6,4,1,0.0027253408706618,-13.56457655433514,-49.78488929257367,3.725,0.5453910894825873,MÉDIO
SANTA RITA DO NOVO DESTINO,2026-06-19,0.0,2,6,4,1,0.0025961253051333,-14.819117187607606,-49.03969360530454,4.5588235294117645,0.5384168982220755,MÉDIO
ITAPURANGA,2026-06-19,0.0,2,6,4,1,0.0018466750250678,-15.577224810549591,-49.933817512866845,2.2222222222222223,0.5362912067706755,MÉDIO
CAMPINORTE,2026-06-19,0.0,3,6,4,1,0.0043180150126335,-14.019192669554034,-48.931304030265736,2.239130434782609,0.5360809563081584,MÉDIO
PIRES DO RIO,2026-06-19,0.0,4,6,4,1,0.0018075411680791,-17.230327492515848,-48.40629032850881,3.636363636363636,0.5317565134544872,MÉDIO
BELA VISTA DE GOIÁS,2026-06-19,0.0,5,6,4,1,0.002201094861946,-16.95106540676648,-48.933601465935,1.6,0.5302681686655142,MÉDIO
BOM JESUS DE GOIÁS,2026-06-19,0.0,3,6,4,1,0.0043556721203019,-18.192311694542585,-49.92073113922121,2.872727272727273,0.5297242379889764,MÉDIO
BALIZA,2026-06-19,0.0,2,6,4,1,0.0094534107740676,-16.335498056525363,-52.47044379945877,2.369565217391304,0.5218371549588713,MÉDIO
MUTUNÓPOLIS,2026-06-19,0.0,1,6,4,1,0.0021346411425314,-13.711606278817616,-49.31418113591433,5.033898305084746,0.5161245009702957,MÉDIO
INDIARA,2026-06-19,0.0,5,6,4,1,0.0023591070392209,-17.22357364537349,-49.96111627583188,2.575,0.5066132699740246,MÉDIO
INHUMAS,2026-06-19,0.0,5,6,4,1,0.0011282364807291,-16.318242778189063,-49.50186836687853,1.9130434782608696,0.5042466012143264,MÉDIO
CORUMBAÍBA,2026-06-19,0.0,3,6,4,1,0.0016332847482806,-18.048104715395148,-48.4749049622824,2.3191489361702127,0.5005093670781934,MÉDIO
ÁGUAS LINDAS DE GOIÁS,2026-06-19,0.0,3,6,4,1,0.0010477536427713,-15.740323677414423,-48.27077651213715,1.6349206349206349,0.4986332670924634,MÉDIO
ALEXÂNIA,2026-06-19,0.0,3,6,4,1,0.0011895215775226,-16.07491682926853,-48.49287370127031,1.9056603773584904,0.49840253683612523,MÉDIO
SANTA TEREZA DE GOIÁS,2026-06-19,0.0,2,6,4,1,0.0022261996003916,-13.615351655700474,-48.99769110324295,3.5405405405405403,0.4901373744306149,MÉDIO
PORTEIRÃO,2026-06-19,0.0,4,6,4,1,0.002961620761914,-17.91222565304729,-50.164965023771295,3.433333333333333,0.4817657190388731,MÉDIO
CORUMBÁ DE GOIÁS,2026-06-19,0.0,2,6,4,1,0.0013837141131455,-15.898613517797502,-48.71659334472278,2.606060606060606,0.4799425918171958,MÉDIO
TURVELÂNDIA,2026-06-19,0.0,4,6,4,1,0.0033884013154882,-17.8061094010701,-50.31150433875028,2.41025641025641,0.47642567470547853,MÉDIO
TERESINA DE GOIÁS,2026-06-19,0.0,2,6,4,1,0.0045387890360223,-13.661127323864664,-47.23879651180497,3.9615384615384617,0.47513407828753873,MÉDIO
MOZARLÂNDIA,2026-06-19,0.0,2,6,4,1,0.0020120709489443,-14.81638418252236,-50.609316979892746,2.8541666666666665,0.47423493142030426,MÉDIO
SANTA CRUZ DE GOIÁS,2026-06-19,0.0,4,6,4,1,0.0013851908624659,-17.372324572144244,-48.58985156059331,2.351351351351352,0.47191473698098624,MÉDIO
FAINA,2026-06-19,0.0,2,6,4,1,0.0040012522834236,-15.450502453569465,-50.35323063719383,2.484848484848485,0.46912735549255796,MÉDIO
MAURILÂNDIA,2026-06-19,0.0,4,6,4,1,0.0023303104274746,-18.03750092993941,-50.36063856125698,4.36,0.46777744879358923,MÉDIO
GUARANI DE GOIÁS,2026-06-19,0.0,3,6,4,1,0.0039702405476967,-13.896234842419478,-46.35992556272503,3.25,0.4597955455032544,MÉDIO
CAÇU,2026-06-19,0.0,3,6,4,1,0.0017366572007035,-18.69115169498673,-51.169522816602274,4.6,0.458085659295434,MÉDIO
PALESTINA DE GOIÁS,2026-06-19,0.0,3,6,4,1,0.0016318079989603,-16.713753711842983,-51.42754199497641,2.933333333333333,0.4507007302511609,MÉDIO
IVOLÂNDIA,2026-06-19,0.0,3,6,4,1,0.0014804411936269,-16.679987246814406,-50.98325370232422,3.4878048780487805,0.4457551782593847,MÉDIO
UIRAPURU,2026-06-19,0.0,3,6,4,1,0.0023568919152404,-14.1658704952681,-49.9660646641288,1.8823529411764703,0.44113895439204415,MÉDIO
VALPARAÍSO DE GOIÁS,2026-06-19,0.0,3,6,4,1,0.0004061060630896,-16.08965315501241,-47.98624179015667,2.023809523809524,0.43999130369205924,MÉDIO
VICENTINÓPOLIS,2026-06-19,0.0,4,6,4,1,0.0018865472567166,-17.717102371829977,-49.92046965643163,4.85,0.43977542452242724,MÉDIO
MOSSÂMEDES,2026-06-19,0.0,5,6,4,1,0.002096984034863,-16.138102134284225,-50.1950255261411,1.875,0.4312636594995392,MÉDIO
URUTAÍ,2026-06-19,0.0,4,6,4,1,0.001073596755877,-17.44233047699522,-48.19865040570893,2.357142857142857,0.4220887108946665,MÉDIO
MATRINCHÃ,2026-06-19,0.0,3,6,4,1,0.0013534407520788,-15.332925918372275,-50.75330754036656,3.5454545454545454,0.4198631439764573,MÉDIO
CAMPOS BELOS,2026-06-19,0.0,2,6,4,1,0.0053953036418114,-12.986995843211018,-46.42094914457776,2.765957446808511,0.41857614786738573,MÉDIO
IPORÁ,2026-06-19,0.0,3,6,4,1,0.0012958475285861,-16.39958999360689,-51.174760035598624,1.6444444444444444,0.41571948776325146,MÉDIO
TROMBAS,2026-06-19,0.0,2,6,4,1,0.0034592852828639,-13.45565441683509,-48.69444724203579,1.818181818181818,0.4140876982470494,MÉDIO
ITAJÁ,2026-06-19,0.0,3,6,4,1,0.0019995185797215,-19.086946202574843,-51.34562507108249,2.5384615384615383,0.4139658288570136,MÉDIO
CIDADE OCIDENTAL,2026-06-19,0.0,3,6,4,1,0.0009805615486965,-16.103552382328953,-47.86022791897977,1.9230769230769231,0.41257513697865,MÉDIO
GUAPÓ,2026-06-19,0.0,5,6,4,1,0.0013896211104268,-16.923914459668058,-49.58948320140861,2.5,0.4117389977934699,MÉDIO
MONTIVIDIU,2026-06-19,0.0,3,6,4,1,0.0017492095699262,-17.302834146829042,-51.19610715003383,1.625,0.41100059493480934,MÉDIO
SANTA FÉ DE GOIÁS,2026-06-19,0.0,2,6,4,1,0.0017765294323523,-15.695835336846852,-51.16880663261477,4.266666666666667,0.4092729615085086,MÉDIO
BRITÂNIA,2026-06-19,0.0,2,6,4,1,0.0024949679766909,-15.098256086081884,-51.20240394542521,1.631578947368421,0.40587429487769033,MÉDIO
DIVINÓPOLIS DE GOIÁS,2026-06-19,0.0,1,6,4,1,0.001997303455741,-13.286303429360114,-46.52383420100133,3.909090909090909,0.4035563042733114,MÉDIO
RUBIATABA,2026-06-19,0.0,2,6,4,1,0.0012448996770349,-15.197347826385103,-49.85541149603293,2.3846153846153846,0.40306802562102956,MÉDIO
FORMOSO,2026-06-19,0.0,2,6,4,1,0.0027740735982326,-13.7157591183698,-48.828383563721786,1.8333333333333333,0.4024344749752206,MÉDIO
QUIRINÓPOLIS,2026-06-19,0.2,0,6,4,1,0.0039104322002235,-18.344498864270253,-50.57761418506451,3.3095238095238093,0.39788320648593484,BAIXO
ARENÓPOLIS,2026-06-19,0.0,2,6,4,1,0.0016960465943945,-16.361902054815086,-51.55715988814804,2.2413793103448274,0.3960802271603467,BAIXO
ITAPIRAPUÃ,2026-06-19,0.0,2,6,4,1,0.0013726384932431,-15.75718984044679,-50.7465760866374,2.4242424242424243,0.3952175837747469,BAIXO
NOVO GAMA,2026-06-19,0.0,3,6,4,1,0.0008040900049175,-16.10973108267564,-48.07263803458282,1.9787234042553192,0.3943965678319971,BAIXO
PEROLÂNDIA,2026-06-19,0.0,3,6,4,1,0.0024462352491202,-17.53130275403183,-52.205615580294655,2.4074074074074074,0.39335460662963495,BAIXO
VIANÓPOLIS,2026-06-19,0.0,3,6,4,1,0.0007620026492882,-16.848283967930477,-48.46851922795139,2.1052631578947367,0.3863392476335911,BAIXO
RIALMA,2026-06-19,0.0,2,6,4,1,0.0012478531756755,-15.319958184167618,-49.53010326892392,1.5483870967741935,0.3817413305119922,BAIXO
LEOPOLDO DE BULHÕES,2026-06-19,0.0,3,6,4,1,0.0009037705840395,-16.556636131106096,-48.89337232999825,1.9428571428571428,0.37878526837064247,BAIXO
ARAGARÇAS,2026-06-19,0.0,3,6,4,1,0.0016207323790579,-15.9954744133776,-52.195114826594455,1.809523809523809,0.37290903446237406,BAIXO
FAZENDA NOVA,2026-06-19,0.0,6,6,4,1,0.0038077981224609,-16.080235263157753,-50.93137671149489,2.647058823529412,0.3728902033720845,BAIXO
HIDROLINA,2026-06-19,0.0,2,6,4,1,0.0009628405568526,-14.78351237067298,-49.29993852784245,2.740740740740741,0.36661614615340493,BAIXO
GUARINOS,2026-06-19,0.0,2,6,4,1,0.0012316089331519,-14.677563689499642,-49.737239130745,2.75,0.36163146564582077,BAIXO
DIORAMA,2026-06-19,0.0,3,6,4,1,0.0011001782436429,-16.22661972062711,-51.389931230721885,4.384615384615385,0.3553762387259404,BAIXO
NOVA IGUAÇU DE GOIÁS,2026-06-19,0.0,2,6,4,1,0.0017403490740043,-14.335840325249317,-49.31212409374217,2.3043478260869565,0.34985250035036725,BAIXO
PILAR DE GOIÁS,2026-06-19,0.0,2,6,4,1,0.0022653334573802,-14.563053642806697,-49.51029317946296,1.4210526315789471,0.3469126176778067,BAIXO
SANTO ANTÔNIO DA BARRA,2026-06-19,0.0,3,6,4,1,0.0012611439195585,-17.55961474151254,-50.63551540775774,3.2962962962962963,0.34368239033028286,BAIXO
PETROLINA DE GOIÁS,2026-06-19,0.0,3,6,4,1,0.0007716015198704,-16.11674724559263,-49.318512368591655,3.56,0.34341673275941764,BAIXO
CAMPOS VERDES,2026-06-19,0.0,2,6,4,1,0.0009022938347192,-14.200869051269477,-49.67078102066461,3.28,0.3430312208573628,BAIXO
PONTALINA,2026-06-19,0.0,3,6,4,1,0.0014390922126578,-17.54112629308756,-49.56409835329973,1.3846153846153846,0.3415428585949279,BAIXO
GAMELEIRA DE GOIÁS,2026-06-19,0.0,3,6,4,1,0.0005648566150247,-16.393084698423134,-48.71174726623623,2.0303030303030303,0.3409240744283281,BAIXO
JANDAIA,2026-06-19,0.0,3,6,4,1,0.0011570330924755,-17.140823818775164,-50.18439081477384,3.55,0.33620453099189734,BAIXO
SÃO FRANCISCO DE GOIÁS,2026-06-19,0.0,2,6,4,1,0.000774555018511,-15.930856959393246,-49.25922517675899,2.2580645161290325,0.3358211097586591,BAIXO
URUANA,2026-06-19,0.0,2,6,4,1,0.0009901604192786,-15.537768557761284,-49.65225244233562,2.5294117647058822,0.3351914555530243,BAIXO
PORTELÂNDIA,2026-06-19,0.0,2,6,4,1,0.001209457693347,-17.363742774222114,-52.70044038012558,2.230769230769231,0.32606447681812817,BAIXO
ALTO HORIZONTE,2026-06-19,0.0,2,6,4,1,0.0009111543306412,-14.162393972965113,-49.45279801107309,2.4705882352941178,0.3240160674030078,BAIXO
MAMBAÍ,2026-06-19,0.0,2,6,4,1,0.005212186726091,-14.387997990140692,-46.051088000383096,5.1923076923076925,0.32271164096920546,BAIXO
SIMOLÂNDIA,2026-06-19,0.0,1,6,4,1,0.0011799227069405,-14.434586326028946,-46.58882654789143,2.5789473684210527,0.3151961395802887,BAIXO
TEREZÓPOLIS DE GOIÁS,2026-06-19,0.0,5,6,4,1,0.0007612642746281,-16.451781768427683,-49.07980840150495,2.125,0.31507440693368677,BAIXO
PANAMÁ,2026-06-19,0.0,3,6,4,1,0.0011511260951942,-18.199317807602675,-49.40058551258638,2.875,0.31444668070747805,BAIXO
SANTA RITA DO ARAGUAIA,2026-06-19,0.3,0,6,4,1,0.0016871860984725,-17.30441364463477,-53.10068255768836,2.236842105263158,0.31040770121856637,BAIXO
AURILÂNDIA,2026-06-19,0.0,3,6,4,1,0.00081516562482,-16.694217641941965,-50.54701395836094,3.333333333333333,0.3080986038077753,BAIXO
GOIANÁPOLIS,2026-06-19,0.0,3,6,4,1,0.0013534407520788,-16.52798048733482,-49.09369703759325,1.7692307692307692,0.3074852226780615,BAIXO
GOIANIRA,2026-06-19,0.0,3,6,4,1,0.0006224498385174,-16.508575399186565,-49.41469315151372,1.4594594594594594,0.3015980220732196,BAIXO
PROFESSOR JAMIL,2026-06-19,0.0,5,6,4,1,0.0010381547721892,-17.327766046172016,-49.24779400353557,2.333333333333333,0.29843986079369406,BAIXO
ABADIA DE GOIÁS,2026-06-19,0.0,3,6,4,1,0.0004105363110506,-16.78893560640398,-49.43279950787229,1.7179487179487178,0.29782197556153417,BAIXO
GOIANDIRA,2026-06-19,0.0,5,6,4,1,0.0006940721805532,-18.109377022796597,-48.1276924891904,1.5555555555555556,0.2943566862460622,BAIXO
NERÓPOLIS,2026-06-19,0.0,5,6,4,1,0.0010041895378217,-16.425056587028248,-49.17034091583095,1.8571428571428568,0.29376514764400785,BAIXO
MAIRIPOTABA,2026-06-19,0.0,3,6,4,1,0.0006999791778345,-17.295161367113327,-49.44670063542476,3.347826086956522,0.2909573092999497,BAIXO
JAUPACI,2026-06-19,0.0,2,6,4,1,0.0010263407776266,-16.20973022325548,-51.05550430467066,4.142857142857143,0.29008893181138223,BAIXO
ESTRELA DO NORTE,2026-06-19,0.0,2,6,4,1,0.0006290952104589,-13.815008598965576,-49.04348551590312,3.269230769230769,0.2889239904231792,BAIXO
CARMO DO RIO VERDE,2026-06-19,0.0,2,6,4,1,0.0007354211615224,-15.426910428711976,-49.742093983937615,2.5217391304347827,0.2883216278411646,BAIXO
OUVIDOR,2026-06-19,0.0,3,6,4,1,0.0006859500592914,-18.22269684670895,-47.73785347238525,1.36,0.2848082101429284,BAIXO
CHAPADÃO DO CÉU,2026-06-19,0.2,0,6,4,1,0.0062939056032299,-18.41837474627293,-52.650980123044505,15.272727272727272,0.2766816197309759,BAIXO
CACHOEIRA ALTA,2026-06-19,0.3,0,6,4,1,0.0012825567847032,-18.461936889018936,-50.98679602687277,3.4827586206896552,0.27533293265553654,BAIXO
CACHOEIRA DE GOIÁS,2026-06-19,0.0,3,6,4,1,0.0008033516302574,-16.743051878299504,-50.687902715799886,1.9047619047619049,0.2726408893080929,BAIXO
INACIOLÂNDIA,2026-06-19,0.0,3,6,4,1,0.0013017545258674,-18.422363375480977,-49.93462547993578,7.142857142857143,0.2716953987157196,BAIXO
IPIRANGA DE GOIÁS,2026-06-19,0.0,2,6,4,1,0.0008085202528785,-15.155239440421736,-49.6667347648474,1.8928571428571428,0.2625705515618693,BAIXO
TURVÂNIA,2026-06-19,0.0,3,6,4,1,0.0005109552648328,-16.5749332857626,-50.13386843949185,2.9166666666666665,0.2567375840863775,BAIXO
VARJÃO,2026-06-19,0.0,4,6,4,1,0.0008159039994801,-17.057239672517852,-49.63849902778105,1.9166666666666667,0.25212944994072767,BAIXO
CACHOEIRA DOURADA,2026-06-19,0.0,3,6,4,1,0.0009392125677274,-18.46651639403071,-49.55177475564167,2.5,0.24918855429305625,BAIXO
DAVINÓPOLIS,2026-06-19,0.0,3,6,4,1,0.0007597875253077,-18.113605118464037,-47.53297332981958,2.357142857142857,0.24636374600175376,BAIXO
SÃO LUÍS DE MONTES BELOS,2026-06-19,0.0,3,6,4,1,0.0005833159815288,-16.469151982594024,-50.3923408472066,2.25,0.24498235601072238,BAIXO
CRISTIANÓPOLIS,2026-06-19,0.0,4,6,4,1,0.0005449204992003,-17.206932724384384,-48.69296888350953,1.4615384615384617,0.24059038769508365,BAIXO
ARAGOIÂNIA,2026-06-19,0.0,5,6,4,1,0.0003322685970733,-16.91901903566752,-49.41650422930775,1.4666666666666666,0.2378212777526084,BAIXO
CERES,2026-06-19,0.0,3,6,4,1,0.0003994606911482,-15.280732075215544,-49.628100932957885,2.357142857142857,0.2350642559182937,BAIXO
CASTELÂNDIA,2026-06-19,0.1,0,6,4,1,0.0014516445818805,-18.147960130853747,-50.30679359237395,2.7222222222222223,0.2333843265052919,BAIXO
AMORINÓPOLIS,2026-06-19,0.0,3,6,4,1,0.0004725597825043,-16.66506804069733,-51.10984947764403,2.1875,0.23183145568020924,BAIXO
CATURAÍ,2026-06-19,0.0,5,6,4,1,0.0004157049336718,-16.46434919145576,-49.55619428460128,2.125,0.2259626579086026,BAIXO
CROMÍNIA,2026-06-19,0.0,3,6,4,1,0.0004969261462897,-17.253757641416556,-49.343018999846976,1.933333333333333,0.219483365340789,BAIXO
ITAUÇU,2026-06-19,0.0,3,6,4,1,0.0005353216286182,-16.19395275886309,-49.59347382261099,1.8,0.21930542438465725,BAIXO
EDEALINA,2026-06-19,0.0,4,6,4,1,0.0006482929516231,-17.41358594607326,-49.76627082483966,1.75,0.2179557447880142,BAIXO
AVELINÓPOLIS,2026-06-19,0.0,5,6,4,1,0.0003972455671677,-16.51911947366258,-49.76146747111399,2.125,0.21636994451272573,BAIXO
RIO QUENTE,2026-06-19,0.0,3,6,4,1,0.0006002985987125,-17.794891918495523,-48.787827332868765,1.8571428571428568,0.21523411961678304,BAIXO
SÃO MIGUEL DO PASSA QUATRO,2026-06-19,0.0,3,6,4,1,0.0004127514350311,-17.005010859807335,-48.6779096365864,1.181818181818182,0.21128217568040908,BAIXO
HEITORAÍ,2026-06-19,0.0,2,6,4,1,0.0004681295345433,-15.737018243255712,-49.79072401383959,1.8,0.2111774566835207,BAIXO
APARECIDA DO RIO DOCE,2026-06-19,0.2,0,6,4,1,0.0009613638075323,-18.2275046528764,-51.298408339959074,1.3571428571428572,0.20471834730134542,BAIXO
MOIPORÁ,2026-06-19,0.0,3,6,4,1,0.0005818392322084,-16.48291057823502,-50.79468243580173,2.4615384615384617,0.20182811934950026,BAIXO
CUMARI,2026-06-19,0.0,3,6,4,1,0.0004880656503677,-18.301979326576244,-48.12847505289865,1.2941176470588236,0.20063110500596096,BAIXO
MARZAGÃO,2026-06-19,0.0,3,6,4,1,0.0003824780739644,-17.955558865377707,-48.675183437794566,2.111111111111111,0.19322587876789296,BAIXO
BONFINÓPOLIS,2026-06-19,0.0,3,6,4,1,0.0004171816829921,-16.593720196431793,-49.00153550440518,1.375,0.19046868209312912,BAIXO
NAZÁRIO,2026-06-19,0.0,5,6,4,1,0.000457792289301,-16.599868890591072,-49.81683600889826,1.3333333333333333,0.18403899315891664,BAIXO
BURITINÓPOLIS,2026-06-19,0.0,3,6,4,1,0.0005914381027906,-14.42314966215634,-46.33303829144667,1.6,0.18388497740927306,BAIXO
ISRAELÂNDIA,2026-06-19,0.0,5,6,4,1,0.0006217114638572,-16.357079235135966,-50.868874162608,2.0,0.18085809934738187,BAIXO
SÃO JOÃO DA PARAÚNA,2026-06-19,0.0,4,6,4,1,0.0003381755943546,-16.83029448609981,-50.38551384054304,1.8571428571428568,0.180365715314227,BAIXO
BURITI ALEGRE,2026-06-19,0.0,3,6,4,1,0.0005065250168718,-18.058745550168023,-49.05309547296925,1.1666666666666667,0.17293550271817357,BAIXO
TRÊS RANCHOS,2026-06-19,0.0,3,6,4,1,0.0001469365573724,-18.316873966288444,-47.74838358478794,2.3125,0.17119406453816863,BAIXO
CAMPO LIMPO DE GOIÁS,2026-06-19,0.0,3,6,4,1,0.0002665532523188,-16.299018349281013,-49.110030575894335,1.5625,0.16773968590904906,BAIXO
JOVIÂNIA,2026-06-19,0.0,3,6,4,1,0.0003374372196945,-17.796625241812514,-49.645908107666806,1.8888888888888888,0.1665876311995913,BAIXO
DAMIANÓPOLIS,2026-06-19,0.0,2,6,4,1,0.0008934333387973,-14.591784557452115,-46.16138493743546,1.1428571428571428,0.16028710990602918,BAIXO
SANTO ANTÔNIO DE GOIÁS,2026-06-19,0.0,3,6,4,1,0.0003182394785302,-16.459177028614274,-49.28880054422419,1.625,0.1569880888128526,BAIXO
PALMINÓPOLIS,2026-06-19,0.0,3,6,4,1,0.0003160243545497,-16.802402853215252,-50.18205094632173,2.142857142857143,0.15678630331233318,BAIXO
FIRMINÓPOLIS,2026-06-19,0.0,3,6,4,1,0.0003101173572684,-16.632875809432132,-50.31542780810252,2.2,0.15275126548127602,BAIXO
NOVA VENEZA,2026-06-19,0.0,3,6,4,1,0.0002525241337757,-16.37386734685885,-49.29800513158261,1.6,0.1505585413281423,BAIXO
SANCLERLÂNDIA,2026-06-19,0.0,3,6,4,1,0.0003374372196945,-16.31910344708521,-50.396968692158616,1.5,0.1474785999988396,BAIXO
MORRO AGUDO DE GOIÁS,2026-06-19,0.0,2,6,4,1,0.0002894428667839,-15.304498898497632,-49.98811127634744,2.6666666666666665,0.13987464395043894,BAIXO
SANTA BÁRBARA DE GOIÁS,2026-06-19,0.0,5,6,4,1,0.0001602273012553,-16.595488741575974,-49.68567213368231,2.0,0.13893974688083632,BAIXO
BRAZABRANTES,2026-06-19,0.0,5,6,4,1,0.0002414485138733,-16.38638492779754,-49.3872036236477,1.1428571428571428,0.13769462851169562,BAIXO
CAMPESTRE DE GOIÁS,2026-06-19,0.0,5,6,4,1,0.0002392333898928,-16.796398326655236,-49.67954670252682,2.0,0.13109334140902507,BAIXO
ITAGUARU,2026-06-19,0.0,3,6,4,1,0.000186070414361,-15.78281026598368,-49.60758994825582,5.555555555555555,0.1305001515742374,BAIXO
NOVA AMÉRICA,2026-06-19,0.0,2,6,4,1,0.0003160243545497,-15.06192828329916,-49.9617065714417,2.5,0.1270285708620844,BAIXO
OURO VERDE DE GOIÁS,2026-06-19,0.0,3,6,4,1,0.0001971460342635,-16.27053798049984,-49.21511768318319,1.4,0.12678823788760268,BAIXO
ITAGUARI,2026-06-19,0.0,2,6,4,1,0.0002813207455221,-15.958521857049124,-49.62738930061074,1.3333333333333333,0.12337606313117264,BAIXO
CALDAZINHA,2026-06-19,0.0,4,6,4,1,0.00022668102067,-16.743499656574723,-48.98542839082745,1.25,0.11916427392767268,BAIXO
SÃO PATRÍCIO,2026-06-19,0.0,2,6,4,1,0.0001831169157204,-15.354159533666005,-49.800363421788425,4.5,0.11696586193114344,BAIXO
LAGOA SANTA,2026-06-19,0.0,3,6,4,1,0.0002879661174635,-19.18411260260326,-51.28965509319911,1.75,0.10527203065632239,BAIXO
SANTA ROSA DE GOIÁS,2026-06-19,0.0,2,6,4,1,8.934333387973059e-05,-16.05154736618163,-49.49362956819317,1.6666666666666667,0.09840959386981414,BAIXO
DAMOLÂNDIA,2026-06-19,0.0,3,6,4,1,4.504085426994682e-05,-16.248604825879593,-49.32391944079821,1.4285714285714286,0.09263743472191473,BAIXO
NOVA AURORA,2026-06-19,0.0,3,6,4,1,9.525033116103507e-05,-18.08032677087066,-48.312556451501656,1.5,0.08793806348806249,BAIXO
CÓRREGO DO OURO,2026-06-19,0.0,3,6,4,1,0.0003691873300815,-16.371262238930456,-50.57972804506588,1.0,0.08363813722944649,BAIXO
RIANÁPOLIS,2026-06-19,0.0,2,6,4,1,0.0004452399200783,-15.471388795648876,-49.44433543377273,1.0,0.08262858454921787,BAIXO
BURITI DE GOIÁS,2026-06-19,0.0,3,6,4,1,0.0004459782947384,-16.117288760460852,-50.42866144294369,1.0,0.07819493866960778,BAIXO
NOVO BRASIL,2026-06-19,0.0,2,6,4,1,0.0004157049336718,-16.06446829111038,-50.5877548005677,1.0,0.0777331966536023,BAIXO
ANHANGUERA,2026-06-19,0.0,3,6,4,1,8.122121261793689e-05,-18.298455841186364,-48.23644304764,9.0,0.07084550840458624,BAIXO
AMERICANO DO BRASIL,2026-06-19,0.0,3,6,4,1,0.0002850126188229,-16.26768690474456,-50.03356390050078,1.0,0.06909551755223646,BAIXO
TAQUARAL DE GOIÁS,2026-06-19,0.0,2,6,4,1,0.0003042103599871,-16.03498818375823,-49.60400920317701,1.0,0.06840244340189336,BAIXO
PARANAIGUARA,2026-06-19,0.1,0,6,4,1,0.0004171816829921,-18.80418019132733,-50.7270395812168,17.666666666666668,0.06652881387559792,BAIXO
ADELÂNDIA,2026-06-19,0.0,3,6,4,1,0.0001786866677594,-16.353762350998142,-50.17813605937417,1.0,0.060732654601696884,BAIXO
ARAÇU,2026-06-19,0.0,4,6,4,1,0.0001417679347513,-16.334093281250002,-49.70501984375,1.0,0.06012220772656143,BAIXO
PALMELO,2026-06-19,0.0,4,6,4,1,0.0001122329483447,-17.29286227354363,-48.39789764949551,1.0,0.056305500061041486,BAIXO
GUARAÍTA,2026-06-19,0.0,2,6,4,1,0.0001203550696065,-15.655710917941402,-50.06909189298791,1.0,0.05135970109246136,BAIXO
JESÚPOLIS,2026-06-19,0.0,2,6,4,1,9.67270804813612e-05,-15.96442854961832,-49.40223259541985,1.0,0.05060560880120382,BAIXO
ALOÂNDIA,2026-06-19,0.0,4,6,4,1,6.276184611386032e-05,-17.68815894117647,-49.45926305882353,0.0,0.00036314353874632724,BAIXO
ÁGUA LIMPA,2026-06-19,0.0,3,6,4,1,2.215123980489188e-05,-17.931234278399998,-48.799315130206665,0.0,0.0002444695834260885,BAIXO
NIQUELÂNDIA,2026-06-20,0.0,3,6,5,1,0.0702666861597576,-14.555710756178348,-48.323001755813664,16.54513888888889,0.969788955599602,ALTO
CAVALCANTE,2026-06-20,0.0,3,6,5,1,0.0610547238995633,-13.605372533203356,-47.74998846789225,13.759398496240602,0.9414322726485272,ALTO
CRISTALINA,2026-06-20,0.0,4,6,5,1,0.0132176447915789,-16.729108968671913,-47.51949739378938,4.318181818181818,0.9104958557500314,ALTO
BARRO ALTO,2026-06-20,0.0,3,6,5,1,0.0070197278941702,-14.9246949793272,-48.89831318663708,2.274193548387097,0.9047096950711824,ALTO
LUZIÂNIA,2026-06-20,0.0,4,6,5,1,0.0070248965167913,-16.41158591502055,-47.9402484582945,3.549504950495049,0.8975601608692225,ALTO
IPAMERI,2026-06-20,0.0,5,6,5,1,0.0082203250915953,-17.453901960073118,-47.994679662267664,5.139896373056994,0.8880618862533893,ALTO
FORMOSA,2026-06-20,0.0,3,6,5,1,0.0326974450760009,-15.366385635807053,-47.255312528185605,4.150837988826815,0.8775813107351129,ALTO
PORANGATU,2026-06-20,0.0,2,6,5,1,0.0130825222287691,-13.295151272205969,-49.25062116604489,8.9,0.8658692473587788,ALTO
GOIÂNIA,2026-06-20,0.0,4,6,5,1,0.0056264149104425,-16.627186847284758,-49.26892340187793,3.121387283236994,0.8466620729976214,ALTO
NOVA CRIXÁS,2026-06-20,0.0,3,6,5,1,0.0140461011602819,-14.109081491545986,-50.60644025233707,11.0,0.846149748262151,ALTO
CATALÃO,2026-06-20,0.0,5,6,5,1,0.0067051802889407,-17.859620758114687,-47.65795514226879,6.779220779220779,0.8427329600093445,ALTO
MINEIROS,2026-06-20,0.3,0,6,5,1,0.0275280840801993,-17.758011413392754,-52.819223041509886,9.509174311926603,0.8389977801277846,ALTO
SÃO JOÃO D'ALIANÇA,2026-06-20,0.0,3,6,5,1,0.0174500083436336,-14.47092130372994,-47.44566869827519,4.917582417582418,0.8347560518002891,ALTO
PLANALTINA,2026-06-20,0.0,3,6,5,1,0.0220286696113048,-15.297339114149969,-47.82804373552916,6.205128205128205,0.8344918343553793,ALTO
FLORES DE GOIÁS,2026-06-20,0.0,3,6,5,1,0.0204832514475835,-14.69582900883936,-46.88334718801356,4.961538461538462,0.8080070198267252,ALTO
PARAÚNA,2026-06-20,0.0,4,6,5,1,0.0093854803053326,-17.025229406670206,-50.64132283176662,7.314814814814815,0.7939401237195636,ALTO
JATAÍ,2026-06-20,0.3,0,6,5,1,0.0181485107721479,-17.885693026802887,-51.7369228480587,4.259668508287293,0.7861048660757599,ALTO
SÃO MIGUEL DO ARAGUAIA,2026-06-20,0.0,2,6,5,1,0.0108009445288652,-13.03457954651454,-50.31087167757311,5.801418439716312,0.780899513111128,ALTO
MONTE ALEGRE DE GOIÁS,2026-06-20,0.0,4,6,5,1,0.0256814090551314,-13.350813143278856,-46.98514054795142,5.746268656716418,0.7787187552392125,ALTO
PADRE BERNARDO,2026-06-20,0.0,3,6,5,1,0.0171465363583066,-15.387542873502616,-48.24234321428453,3.821138211382114,0.7678797617464679,ALTO
URUAÇU,2026-06-20,0.0,4,6,5,1,0.0084898318425548,-14.424659723475168,-49.081429732121045,2.8306451612903225,0.7635884667995254,ALTO
RIO VERDE,2026-06-20,0.4,0,6,5,1,0.020077883759154,-17.80973337888139,-51.01793797116709,5.575418994413408,0.7488028665880904,ALTO
CRIXÁS,2026-06-20,0.0,3,6,5,1,0.0142565379384284,-14.80659158075239,-50.06889904182484,3.504,0.7454588193638241,ALTO
SÃO DOMINGOS,2026-06-20,0.0,2,6,5,1,0.0184815177438814,-13.484742034647564,-46.3952483067699,5.164179104477612,0.7401401366330753,ALTO
ALTO PARAÍSO DE GOIÁS,2026-06-20,0.0,3,6,5,1,0.0136045531135044,-14.194794675020932,-47.58800995260268,5.992063492063492,0.7347679925280894,ALTO
MINAÇU,2026-06-20,0.0,3,6,5,1,0.0177172999706126,-13.517945024690189,-48.337109129169214,5.321428571428571,0.7296212449254412,ALTO
CAMPO ALEGRE DE GOIÁS,2026-06-20,0.0,6,6,5,1,0.0035722566058688,-17.478774899824252,-47.74286914863833,3.197674418604651,0.7159746928226954,ALTO
CAIAPÔNIA,2026-06-20,1.7,0,6,5,1,0.0142749973049324,-17.02333953529842,-51.80903000805655,7.114832535885167,0.7109455732395435,ALTO
JUSSARA,2026-06-20,0.0,5,6,5,1,0.0097384233928906,-15.53774041723269,-51.30291227238109,7.694117647058824,0.7008970109351954,ALTO
CALDAS NOVAS,2026-06-20,0.0,4,6,5,1,0.0032953661083077,-17.728174181219167,-48.609976896734885,3.2033898305084745,0.6888504833519256,MÉDIO
SILVÂNIA,2026-06-20,0.0,4,6,5,1,0.0024809388581478,-16.63901076782678,-48.5989267608625,2.824074074074074,0.6884680176945203,MÉDIO
ÁGUA FRIA DE GOIÁS,2026-06-20,0.0,3,6,5,1,0.0101031804750111,-14.959240097702764,-47.8720093319421,3.768421052631579,0.6874305793045987,MÉDIO
NOVA ROMA,2026-06-20,0.0,3,6,5,1,0.0121329724157994,-13.714942640576536,-47.01834764226104,5.73015873015873,0.6840490210893464,MÉDIO
ANÁPOLIS,2026-06-20,0.0,4,6,5,1,0.0025665903187268,-16.327248789404404,-48.95399874795129,2.279279279279279,0.6838694153164816,MÉDIO
VILA PROPÍCIO,2026-06-20,0.0,3,6,5,1,0.0090901304412674,-15.174992710889834,-48.74270162202432,3.1449275362318843,0.6536865205189619,MÉDIO
CEZARINA,2026-06-20,0.0,6,6,5,1,0.0010817188771388,-17.034689299189036,-49.7756844762151,1.1111111111111112,0.6393682785851972,MÉDIO
GOIÁS,2026-06-20,0.0,4,6,5,1,0.006679337175835,-15.910637681321438,-50.22587344128038,3.4526315789473685,0.6376611559049664,MÉDIO
DOVERLÂNDIA,2026-06-20,0.1,0,6,5,1,0.0061203875580916,-16.786897298262215,-52.47629182084975,6.219512195121951,0.6355268266581271,MÉDIO
VILA BOA,2026-06-20,0.0,6,6,5,1,0.0051088142736682,-14.984552679127855,-47.06563145675107,4.597402597402597,0.6348153872042647,MÉDIO
PIRACANJUBA,2026-06-20,0.0,4,6,5,1,0.0031550749228767,-17.359788624438703,-49.008963459189445,2.4878048780487805,0.6315665858773837,MÉDIO
ANICUNS,2026-06-20,0.0,5,6,5,1,0.0028693239293936,-16.386618352812665,-49.96569453715062,2.6095238095238096,0.6299221158638426,MÉDIO
PIRENÓPOLIS,2026-06-20,0.0,3,6,5,1,0.0060856839490639,-15.78834605245366,-48.98248540918748,2.509433962264151,0.625662844153316,MÉDIO
APARECIDA DE GOIÂNIA,2026-06-20,0.0,4,6,5,1,0.0013357197602349,-16.80602601231046,-49.24588428522596,1.7731958762886595,0.6236073877714415,MÉDIO
MORRINHOS,2026-06-20,0.0,4,6,5,1,0.0046879407173752,-17.747080471125827,-49.18201398317284,2.7681159420289854,0.6200594943220675,MÉDIO
ARUANÃ,2026-06-20,0.0,3,6,5,1,0.0055090133394766,-14.80056233565119,-50.9660645783424,5.5,0.6196448441162672,MÉDIO
MIMOSO DE GOIÁS,2026-06-20,0.0,3,6,5,1,0.0153441638128486,-15.0302729730905,-48.33825202036574,5.0,0.6111857352128968,MÉDIO
POSSE,2026-06-20,0.0,4,6,5,1,0.0078828878719008,-14.196997106543726,-46.3411011854588,3.027027027027027,0.6104355027960396,MÉDIO
SENADOR CANEDO,2026-06-20,0.0,6,6,5,1,0.0015070226813928,-16.72174558705297,-49.12425814633367,2.8767123287671232,0.6081128091275704,MÉDIO
ALVORADA DO NORTE,2026-06-20,0.0,3,6,5,1,0.0069111868191262,-14.578913930149612,-46.62741788371978,4.3125,0.6034351824535745,MÉDIO
SERRANÓPOLIS,2026-06-20,0.9,0,6,5,1,0.0084580817321678,-18.245444254046,-52.13858145093347,3.9432624113475176,0.6025586467152343,MÉDIO
ABADIÂNIA,2026-06-20,0.0,4,6,5,1,0.0021287341452501,-16.19915712906121,-48.70814271576387,2.414634146341464,0.5998453615986918,MÉDIO
ARAGUAPAZ,2026-06-20,0.0,3,6,5,1,0.0072685601546451,-15.139882625109504,-50.2765366521584,3.544117647058824,0.5994430765785339,MÉDIO
ITABERAÍ,2026-06-20,0.0,3,6,5,1,0.0036438789479047,-16.076051965486666,-49.86875528845477,3.0,0.5984920164272167,MÉDIO
JARAGUÁ,2026-06-20,0.0,3,6,5,1,0.0027460153611464,-15.684175632573451,-49.36723779617128,2.119047619047619,0.5972486557426094,MÉDIO
HIDROLÂNDIA,2026-06-20,0.0,6,6,5,1,0.001757331691188,-17.00595303936355,-49.2631795818899,2.1594202898550723,0.5965390859818479,MÉDIO
CAMPINAÇU,2026-06-20,0.0,2,6,5,1,0.0107566420492554,-13.868181231222769,-48.55699372818981,7.882352941176471,0.5874064173330459,MÉDIO
ITUMBIARA,2026-06-20,0.4,0,6,5,1,0.0076968174575397,-18.36303539838409,-49.51316782799183,5.170940170940171,0.586594774765894,MÉDIO
SÍTIO D'ABADIA,2026-06-20,0.0,3,6,5,1,0.0063869408104104,-14.729138480039394,-46.29929381822457,5.327586206896552,0.5849336492143061,MÉDIO
ORIZONA,2026-06-20,0.0,5,6,5,1,0.0020201930702061,-17.02708940860277,-48.16569268300261,2.0625,0.5821105789994572,MÉDIO
COCALZINHO DE GOIÁS,2026-06-20,0.0,3,6,5,1,0.0042582066651603,-15.644454575968023,-48.59695917813067,2.492063492063492,0.573660195181808,MÉDIO
MARA ROSA,2026-06-20,0.0,3,6,5,1,0.0037022105460575,-13.999770100704,-49.390664925569126,2.625,0.5734908700037401,MÉDIO
COLINAS DO SUL,2026-06-20,0.0,3,6,5,1,0.0162671321380524,-13.94148455899416,-48.086108285372966,5.053571428571429,0.5706332977172782,MÉDIO
TRINDADE,2026-06-20,0.0,6,6,5,1,0.0016598662360465,-16.650075769653657,-49.51836291274552,1.6708860759493671,0.5591069922242723,MÉDIO
MONTIVIDIU DO NORTE,2026-06-20,0.0,3,6,5,1,0.0055422401991839,-13.157797966650936,-48.70583895092373,7.462962962962963,0.5551920368958898,MÉDIO
SANTO ANTÔNIO DO DESCOBERTO,2026-06-20,0.0,3,6,5,1,0.002381996653686,-16.02598615253068,-48.28800335138823,2.3076923076923075,0.5550543115968587,MÉDIO
GOIANÉSIA,2026-06-20,0.0,3,6,5,1,0.0033721570729647,-15.235935983775684,-49.19339896780853,2.430379746835443,0.5426285376879427,MÉDIO
SÃO LUIZ DO NORTE,2026-06-20,0.0,4,6,5,1,0.0024484503731007,-14.905980936295272,-49.283790673643686,3.3375,0.524332742684883,MÉDIO
BOM JARDIM DE GOIÁS,2026-06-20,0.3,0,6,5,1,0.006982809161162,-16.169600227866493,-52.08811808319062,3.295238095238095,0.5219736166864052,MÉDIO
BONÓPOLIS,2026-06-20,0.0,2,6,5,1,0.0027253408706618,-13.56457655433514,-49.78488929257367,3.725,0.5211499302506558,MÉDIO
ITAPACI,2026-06-20,0.0,3,6,5,1,0.0027290327439626,-14.955491253186096,-49.62493326485581,2.6666666666666665,0.5211294149250503,MÉDIO
ACREÚNA,2026-06-20,0.0,4,6,5,1,0.0050453140528942,-17.48826970830257,-50.32369400069289,3.42,0.5197029775899753,MÉDIO
ÁGUAS LINDAS DE GOIÁS,2026-06-20,0.0,4,6,5,1,0.0010477536427713,-15.740323677414423,-48.27077651213715,1.6349206349206349,0.5193212517034516,MÉDIO
CAMPINORTE,2026-06-20,0.0,4,6,5,1,0.0043180150126335,-14.019192669554034,-48.931304030265736,2.239130434782609,0.5191858290900084,MÉDIO
MUNDO NOVO,2026-06-20,0.0,4,6,5,1,0.0027504456091074,-13.777534650060309,-50.25180240334917,2.9692307692307693,0.5178854182652723,MÉDIO
IACIARA,2026-06-20,0.0,3,6,5,1,0.0029911557483205,-14.108153980696324,-46.79592329445353,7.594202898550725,0.5143273286463729,MÉDIO
NOVA GLÓRIA,2026-06-20,0.0,4,6,5,1,0.0023332639261152,-15.080904022970325,-49.5127373729181,2.68,0.5101286407555677,MÉDIO
CABECEIRAS,2026-06-20,0.0,3,6,5,1,0.0021161817760273,-15.753711869204832,-46.99550025639795,4.791666666666667,0.5094933642697131,MÉDIO
PIRES DO RIO,2026-06-20,0.0,5,6,5,1,0.0018075411680791,-17.230327492515848,-48.40629032850881,3.636363636363636,0.4992920295842341,MÉDIO
SANTA ISABEL,2026-06-20,0.0,3,6,5,1,0.0024432817504795,-15.200546008094864,-49.40043024932847,6.6415094339622645,0.4989975160209374,MÉDIO
MONTES CLAROS DE GOIÁS,2026-06-20,0.0,3,6,5,1,0.0036261579560608,-15.873326931416043,-51.59664771775818,4.019230769230769,0.498563948738452,MÉDIO
PALMEIRAS DE GOIÁS,2026-06-20,0.0,4,6,5,1,0.0026522417793057,-16.814514481269185,-49.9450199537401,2.2916666666666665,0.49752303710966345,MÉDIO
ITAPURANGA,2026-06-20,0.0,3,6,5,1,0.0018466750250678,-15.577224810549591,-49.933817512866845,2.2222222222222223,0.4957034441627346,MÉDIO
BELA VISTA DE GOIÁS,2026-06-20,0.0,6,6,5,1,0.002201094861946,-16.95106540676648,-48.933601465935,1.6,0.4957013763190748,MÉDIO
AMARALINA,2026-06-20,0.0,4,6,5,1,0.0035235238782981,-13.848529827205882,-49.56903226128027,2.5098039215686274,0.495691820599717,MÉDIO
MUTUNÓPOLIS,2026-06-20,0.0,2,6,5,1,0.0021346411425314,-13.711606278817616,-49.31418113591433,5.033898305084746,0.4930709335294663,MÉDIO
ALEXÂNIA,2026-06-20,0.0,4,6,5,1,0.0011895215775226,-16.07491682926853,-48.49287370127031,1.9056603773584904,0.49195571116284037,MÉDIO
SANTA TEREZINHA DE GOIÁS,2026-06-20,0.0,3,6,5,1,0.0023960257722291,-14.32429478078316,-49.65930833489798,4.050847457627119,0.4882236620831018,MÉDIO
NOVO PLANALTO,2026-06-20,0.0,5,6,5,1,0.0015786450234286,-13.224864863175409,-49.711211164352655,4.092307692307692,0.4854584779707313,MÉDIO
INHUMAS,2026-06-20,0.0,6,6,5,1,0.0011282364807291,-16.318242778189063,-49.50186836687853,1.9130434782608696,0.47877859481748736,MÉDIO
CORUMBAÍBA,2026-06-20,0.0,4,6,5,1,0.0016332847482806,-18.048104715395148,-48.4749049622824,2.3191489361702127,0.4755466506790596,MÉDIO
VALPARAÍSO DE GOIÁS,2026-06-20,0.0,4,6,5,1,0.0004061060630896,-16.08965315501241,-47.98624179015667,2.023809523809524,0.4720899138028196,MÉDIO
SANTA RITA DO NOVO DESTINO,2026-06-20,0.0,3,6,5,1,0.0025961253051333,-14.819117187607606,-49.03969360530454,4.5588235294117645,0.4702655763373564,MÉDIO
CORUMBÁ DE GOIÁS,2026-06-20,0.0,3,6,5,1,0.0013837141131455,-15.898613517797502,-48.71659334472278,2.606060606060606,0.4665964206379678,MÉDIO
GOIATUBA,2026-06-20,0.2,0,6,5,1,0.0047403653182468,-17.991078799174332,-49.72506729400575,2.75,0.46553537782852067,MÉDIO
PIRANHAS,2026-06-20,0.4,0,6,5,1,0.0030155221121059,-16.447787530113146,-51.854078169184085,3.371794871794872,0.45850738027948795,MÉDIO
SANTA CRUZ DE GOIÁS,2026-06-20,0.0,5,6,5,1,0.0013851908624659,-17.372324572144244,-48.58985156059331,2.351351351351352,0.4562245710226907,MÉDIO
INDIARA,2026-06-20,0.0,6,6,5,1,0.0023591070392209,-17.22357364537349,-49.96111627583188,2.575,0.453611481522285,MÉDIO
EDÉIA,2026-06-20,0.2,0,6,5,1,0.0040093744046854,-17.509361464280108,-50.00172531667008,2.9791666666666665,0.44783002465913885,MÉDIO
CIDADE OCIDENTAL,2026-06-20,0.0,4,6,5,1,0.0009805615486965,-16.103552382328953,-47.86022791897977,1.9230769230769231,0.44547823913715684,MÉDIO
TERESINA DE GOIÁS,2026-06-20,0.0,3,6,5,1,0.0045387890360223,-13.661127323864664,-47.23879651180497,3.9615384615384617,0.4444194696106528,MÉDIO
SANTA TEREZA DE GOIÁS,2026-06-20,0.0,3,6,5,1,0.0022261996003916,-13.615351655700474,-48.99769110324295,3.5405405405405403,0.4387695863767062,MÉDIO
SANTA HELENA DE GOIÁS,2026-06-20,0.6,0,6,5,1,0.0065552902329276,-17.809635495091406,-50.550434417318826,5.549295774647887,0.4362617794065932,MÉDIO
NOVO GAMA,2026-06-20,0.0,4,6,5,1,0.0008040900049175,-16.10973108267564,-48.07263803458282,1.9787234042553192,0.43243415490237197,MÉDIO
GUARANI DE GOIÁS,2026-06-20,0.0,4,6,5,1,0.0039702405476967,-13.896234842419478,-46.35992556272503,3.25,0.41648346852553225,MÉDIO
BOM JESUS DE GOIÁS,2026-06-20,0.4,0,6,5,1,0.0043556721203019,-18.192311694542585,-49.92073113922121,2.872727272727273,0.4095528678178984,MÉDIO
PALESTINA DE GOIÁS,2026-06-20,0.0,4,6,5,1,0.0016318079989603,-16.713753711842983,-51.42754199497641,2.933333333333333,0.3976000110241671,BAIXO
URUTAÍ,2026-06-20,0.0,5,6,5,1,0.001073596755877,-17.44233047699522,-48.19865040570893,2.357142857142857,0.3975419733956204,BAIXO
FAINA,2026-06-20,0.0,3,6,5,1,0.0040012522834236,-15.450502453569465,-50.35323063719383,2.484848484848485,0.39742605078146104,BAIXO
CAMPOS BELOS,2026-06-20,0.0,3,6,5,1,0.0053953036418114,-12.986995843211018,-46.42094914457776,2.765957446808511,0.39635041237970364,BAIXO
MOZARLÂNDIA,2026-06-20,0.0,3,6,5,1,0.0020120709489443,-14.81638418252236,-50.609316979892746,2.8541666666666665,0.39317303692281463,BAIXO
IVOLÂNDIA,2026-06-20,0.0,4,6,5,1,0.0014804411936269,-16.679987246814406,-50.98325370232422,3.4878048780487805,0.3930117150864764,BAIXO
BALIZA,2026-06-20,0.5,0,6,5,1,0.0094534107740676,-16.335498056525363,-52.47044379945877,2.369565217391304,0.3886351009253947,BAIXO
TROMBAS,2026-06-20,0.0,3,6,5,1,0.0034592852828639,-13.45565441683509,-48.69444724203579,1.818181818181818,0.38665937423204094,BAIXO
DIVINÓPOLIS DE GOIÁS,2026-06-20,0.0,2,6,5,1,0.001997303455741,-13.286303429360114,-46.52383420100133,3.909090909090909,0.38516430120029144,BAIXO
ITARUMÃ,2026-06-20,1.9,0,6,5,1,0.0046421614884451,-18.86462245523424,-51.33580667861621,4.627118644067797,0.37927163556139976,BAIXO
GUAPÓ,2026-06-20,0.0,6,6,5,1,0.0013896211104268,-16.923914459668058,-49.58948320140861,2.5,0.3788707897455804,BAIXO
IPORÁ,2026-06-20,0.0,4,6,5,1,0.0012958475285861,-16.39958999360689,-51.174760035598624,1.6444444444444444,0.3777303381764029,BAIXO
TURVELÂNDIA,2026-06-20,0.5,0,6,5,1,0.0033884013154882,-17.8061094010701,-50.31150433875028,2.41025641025641,0.3773667894237802,BAIXO
FORMOSO,2026-06-20,0.0,3,6,5,1,0.0027740735982326,-13.7157591183698,-48.828383563721786,1.8333333333333333,0.3759881395890521,BAIXO
APORÉ,2026-06-20,0.5,0,6,5,1,0.0023280953034941,-18.7073526543005,-52.08304620766298,4.466666666666667,0.37291060229462775,BAIXO
UIRAPURU,2026-06-20,0.0,4,6,5,1,0.0023568919152404,-14.1658704952681,-49.9660646641288,1.8823529411764703,0.3686740365466561,BAIXO
MATRINCHÃ,2026-06-20,0.0,4,6,5,1,0.0013534407520788,-15.332925918372275,-50.75330754036656,3.5454545454545454,0.3678871039569838,BAIXO
PORTEIRÃO,2026-06-20,0.8,0,6,5,1,0.002961620761914,-17.91222565304729,-50.164965023771295,3.433333333333333,0.3667842904446824,BAIXO
VIANÓPOLIS,2026-06-20,0.0,4,6,5,1,0.0007620026492882,-16.848283967930477,-48.46851922795139,2.1052631578947367,0.3667576901754047,BAIXO
LEOPOLDO DE BULHÕES,2026-06-20,0.0,4,6,5,1,0.0009037705840395,-16.556636131106096,-48.89337232999825,1.9428571428571428,0.3626974401125028,BAIXO
MOSSÂMEDES,2026-06-20,0.0,6,6,5,1,0.002096984034863,-16.138102134284225,-50.1950255261411,1.875,0.3597400945308155,BAIXO
RIALMA,2026-06-20,0.0,3,6,5,1,0.0012478531756755,-15.319958184167618,-49.53010326892392,1.5483870967741935,0.3570188366640245,BAIXO
MONTIVIDIU,2026-06-20,0.0,4,6,5,1,0.0017492095699262,-17.302834146829042,-51.19610715003383,1.625,0.3552994778757592,BAIXO
RUBIATABA,2026-06-20,0.0,3,6,5,1,0.0012448996770349,-15.197347826385103,-49.85541149603293,2.3846153846153846,0.3521277624327241,BAIXO
ARENÓPOLIS,2026-06-20,0.0,3,6,5,1,0.0016960465943945,-16.361902054815086,-51.55715988814804,2.2413793103448274,0.3382068813026069,BAIXO
NOVA IGUAÇU DE GOIÁS,2026-06-20,0.0,3,6,5,1,0.0017403490740043,-14.335840325249317,-49.31212409374217,2.3043478260869565,0.3343588565975504,BAIXO
BRITÂNIA,2026-06-20,0.0,3,6,5,1,0.0024949679766909,-15.098256086081884,-51.20240394542521,1.631578947368421,0.33236069184154726,BAIXO
ITAPIRAPUÃ,2026-06-20,0.0,3,6,5,1,0.0013726384932431,-15.75718984044679,-50.7465760866374,2.4242424242424243,0.3319872656159389,BAIXO
CAÇU,2026-06-20,0.3,0,6,5,1,0.0017366572007035,-18.69115169498673,-51.169522816602274,4.6,0.3274895030030689,BAIXO
PONTALINA,2026-06-20,0.0,4,6,5,1,0.0014390922126578,-17.54112629308756,-49.56409835329973,1.3846153846153846,0.3239608291579043,BAIXO
GAMELEIRA DE GOIÁS,2026-06-20,0.0,4,6,5,1,0.0005648566150247,-16.393084698423134,-48.71174726623623,2.0303030303030303,0.32335292409350647,BAIXO
SANTA FÉ DE GOIÁS,2026-06-20,0.0,3,6,5,1,0.0017765294323523,-15.695835336846852,-51.16880663261477,4.266666666666667,0.32131386419454877,BAIXO
MAMBAÍ,2026-06-20,0.0,3,6,5,1,0.005212186726091,-14.387997990140692,-46.051088000383096,5.1923076923076925,0.32102346007436044,BAIXO
QUIRINÓPOLIS,2026-06-20,1.1,0,6,5,1,0.0039104322002235,-18.344498864270253,-50.57761418506451,3.3095238095238093,0.31944205742545106,BAIXO
HIDROLINA,2026-06-20,0.0,3,6,5,1,0.0009628405568526,-14.78351237067298,-49.29993852784245,2.740740740740741,0.3189527876514187,BAIXO
DIORAMA,2026-06-20,0.0,4,6,5,1,0.0011001782436429,-16.22661972062711,-51.389931230721885,4.384615384615385,0.3180383198743311,BAIXO
FAZENDA NOVA,2026-06-20,0.0,7,6,5,1,0.0038077981224609,-16.080235263157753,-50.93137671149489,2.647058823529412,0.31553897969925115,BAIXO
URUANA,2026-06-20,0.0,3,6,5,1,0.0009901604192786,-15.537768557761284,-49.65225244233562,2.5294117647058822,0.3135848851749366,BAIXO
PILAR DE GOIÁS,2026-06-20,0.0,3,6,5,1,0.0022653334573802,-14.563053642806697,-49.51029317946296,1.4210526315789471,0.31268319393206534,BAIXO
PETROLINA DE GOIÁS,2026-06-20,0.0,4,6,5,1,0.0007716015198704,-16.11674724559263,-49.318512368591655,3.56,0.31085617052190007,BAIXO
GUARINOS,2026-06-20,0.0,3,6,5,1,0.0012316089331519,-14.677563689499642,-49.737239130745,2.75,0.3081712823453071,BAIXO
SIMOLÂNDIA,2026-06-20,0.0,2,6,5,1,0.0011799227069405,-14.434586326028946,-46.58882654789143,2.5789473684210527,0.306445113213937,BAIXO
GOIANÁPOLIS,2026-06-20,0.0,4,6,5,1,0.0013534407520788,-16.52798048733482,-49.09369703759325,1.7692307692307692,0.30616795541801256,BAIXO
CAMPOS VERDES,2026-06-20,0.0,3,6,5,1,0.0009022938347192,-14.200869051269477,-49.67078102066461,3.28,0.3038942671128526,BAIXO
JANDAIA,2026-06-20,0.0,4,6,5,1,0.0011570330924755,-17.140823818775164,-50.18439081477384,3.55,0.3011832957801814,BAIXO
MAURILÂNDIA,2026-06-20,0.4,0,6,5,1,0.0023303104274746,-18.03750092993941,-50.36063856125698,4.36,0.29840693175137023,BAIXO
SÃO FRANCISCO DE GOIÁS,2026-06-20,0.0,3,6,5,1,0.000774555018511,-15.930856959393246,-49.25922517675899,2.2580645161290325,0.29418289127386016,BAIXO
OUVIDOR,2026-06-20,0.0,4,6,5,1,0.0006859500592914,-18.22269684670895,-47.73785347238525,1.36,0.2916962318132089,BAIXO
ALTO HORIZONTE,2026-06-20,0.0,3,6,5,1,0.0009111543306412,-14.162393972965113,-49.45279801107309,2.4705882352941178,0.29137585391410686,BAIXO
VICENTINÓPOLIS,2026-06-20,0.3,0,6,5,1,0.0018865472567166,-17.717102371829977,-49.92046965643163,4.85,0.2874786062119995,BAIXO
ABADIA DE GOIÁS,2026-06-20,0.0,4,6,5,1,0.0004105363110506,-16.78893560640398,-49.43279950787229,1.7179487179487178,0.2862435780322198,BAIXO
TEREZÓPOLIS DE GOIÁS,2026-06-20,0.0,6,6,5,1,0.0007612642746281,-16.451781768427683,-49.07980840150495,2.125,0.27537824948373535,BAIXO
NERÓPOLIS,2026-06-20,0.0,6,6,5,1,0.0010041895378217,-16.425056587028248,-49.17034091583095,1.8571428571428568,0.27452343159032744,BAIXO
SANTA RITA DO ARAGUAIA,2026-06-20,0.2,0,6,5,1,0.0016871860984725,-17.30441364463477,-53.10068255768836,2.236842105263158,0.27339632878261344,BAIXO
PROFESSOR JAMIL,2026-06-20,0.0,6,6,5,1,0.0010381547721892,-17.327766046172016,-49.24779400353557,2.333333333333333,0.2711313337727678,BAIXO
GOIANIRA,2026-06-20,0.0,4,6,5,1,0.0006224498385174,-16.508575399186565,-49.41469315151372,1.4594594594594594,0.2709442936382824,BAIXO
PEROLÂNDIA,2026-06-20,0.2,0,6,5,1,0.0024462352491202,-17.53130275403183,-52.205615580294655,2.4074074074074074,0.27073465890440596,BAIXO
GOIANDIRA,2026-06-20,0.0,6,6,5,1,0.0006940721805532,-18.109377022796597,-48.1276924891904,1.5555555555555556,0.2640727834725906,BAIXO
AURILÂNDIA,2026-06-20,0.0,4,6,5,1,0.00081516562482,-16.694217641941965,-50.54701395836094,3.333333333333333,0.2593701527820282,BAIXO
ESTRELA DO NORTE,2026-06-20,0.0,3,6,5,1,0.0006290952104589,-13.815008598965576,-49.04348551590312,3.269230769230769,0.2593614074714924,BAIXO
MAIRIPOTABA,2026-06-20,0.0,4,6,5,1,0.0006999791778345,-17.295161367113327,-49.44670063542476,3.347826086956522,0.257494990991893,BAIXO
ITAJÁ,2026-06-20,1.3,0,6,5,1,0.0019995185797215,-19.086946202574843,-51.34562507108249,2.5384615384615383,0.25590222587401684,BAIXO
IPIRANGA DE GOIÁS,2026-06-20,0.0,3,6,5,1,0.0008085202528785,-15.155239440421736,-49.6667347648474,1.8928571428571428,0.2527826815738314,BAIXO
JAUPACI,2026-06-20,0.0,3,6,5,1,0.0010263407776266,-16.20973022325548,-51.05550430467066,4.142857142857143,0.2505226717570711,BAIXO
CARMO DO RIO VERDE,2026-06-20,0.0,3,6,5,1,0.0007354211615224,-15.426910428711976,-49.742093983937615,2.5217391304347827,0.2492617934812737,BAIXO
SANTO ANTÔNIO DA BARRA,2026-06-20,0.2,0,6,5,1,0.0012611439195585,-17.55961474151254,-50.63551540775774,3.2962962962962963,0.2477237673804248,BAIXO
CACHOEIRA DE GOIÁS,2026-06-20,0.0,4,6,5,1,0.0008033516302574,-16.743051878299504,-50.687902715799886,1.9047619047619049,0.23315894995337427,BAIXO
PANAMÁ,2026-06-20,0.3,0,6,5,1,0.0011511260951942,-18.199317807602675,-49.40058551258638,2.875,0.23093311876304734,BAIXO
DAVINÓPOLIS,2026-06-20,0.0,4,6,5,1,0.0007597875253077,-18.113605118464037,-47.53297332981958,2.357142857142857,0.22333497832797447,BAIXO
CACHOEIRA ALTA,2026-06-20,0.9,0,6,5,1,0.0012825567847032,-18.461936889018936,-50.98679602687277,3.4827586206896552,0.22268504069647294,BAIXO
PORTELÂNDIA,2026-06-20,0.2,0,6,5,1,0.001209457693347,-17.363742774222114,-52.70044038012558,2.230769230769231,0.22265435997183197,BAIXO
VARJÃO,2026-06-20,0.0,5,6,5,1,0.0008159039994801,-17.057239672517852,-49.63849902778105,1.9166666666666667,0.22187747093421237,BAIXO
CHAPADÃO DO CÉU,2026-06-20,0.8,0,6,5,1,0.0062939056032299,-18.41837474627293,-52.650980123044505,15.272727272727272,0.2192731593647247,BAIXO
CASTELÂNDIA,2026-06-20,0.6,0,6,5,1,0.0014516445818805,-18.147960130853747,-50.30679359237395,2.7222222222222223,0.2189604653075555,BAIXO
CRISTIANÓPOLIS,2026-06-20,0.0,5,6,5,1,0.0005449204992003,-17.206932724384384,-48.69296888350953,1.4615384615384617,0.20900993005962634,BAIXO
ARAGOIÂNIA,2026-06-20,0.0,6,6,5,1,0.0003322685970733,-16.91901903566752,-49.41650422930775,1.4666666666666666,0.20803788609050658,BAIXO
TURVÂNIA,2026-06-20,0.0,4,6,5,1,0.0005109552648328,-16.5749332857626,-50.13386843949185,2.9166666666666665,0.20712620238385065,BAIXO
SÃO LUÍS DE MONTES BELOS,2026-06-20,0.0,4,6,5,1,0.0005833159815288,-16.469151982594024,-50.3923408472066,2.25,0.20242729074277238,BAIXO
CERES,2026-06-20,0.0,4,6,5,1,0.0003994606911482,-15.280732075215544,-49.628100932957885,2.357142857142857,0.19946334255285322,BAIXO
RIO QUENTE,2026-06-20,0.0,4,6,5,1,0.0006002985987125,-17.794891918495523,-48.787827332868765,1.8571428571428568,0.19833817907179588,BAIXO
CROMÍNIA,2026-06-20,0.0,4,6,5,1,0.0004969261462897,-17.253757641416556,-49.343018999846976,1.933333333333333,0.19439094658097478,BAIXO
EDEALINA,2026-06-20,0.0,5,6,5,1,0.0006482929516231,-17.41358594607326,-49.76627082483966,1.75,0.18888050723981628,BAIXO
CATURAÍ,2026-06-20,0.0,6,6,5,1,0.0004157049336718,-16.46434919145576,-49.55619428460128,2.125,0.1864092989789723,BAIXO
AMORINÓPOLIS,2026-06-20,0.0,4,6,5,1,0.0004725597825043,-16.66506804069733,-51.10984947764403,2.1875,0.18609772056960588,BAIXO
SÃO MIGUEL DO PASSA QUATRO,2026-06-20,0.0,4,6,5,1,0.0004127514350311,-17.005010859807335,-48.6779096365864,1.181818181818182,0.185602102842372,BAIXO
HEITORAÍ,2026-06-20,0.0,3,6,5,1,0.0004681295345433,-15.737018243255712,-49.79072401383959,1.8,0.18523162386310846,BAIXO
ARAGARÇAS,2026-06-20,1.0,0,6,5,1,0.0016207323790579,-15.9954744133776,-52.195114826594455,1.809523809523809,0.18500689029657602,BAIXO
ITAUÇU,2026-06-20,0.0,4,6,5,1,0.0005353216286182,-16.19395275886309,-49.59347382261099,1.8,0.18122475844333094,BAIXO
CACHOEIRA DOURADA,2026-06-20,0.2,0,6,5,1,0.0009392125677274,-18.46651639403071,-49.55177475564167,2.5,0.18049592733691136,BAIXO
INACIOLÂNDIA,2026-06-20,0.6,0,6,5,1,0.0013017545258674,-18.422363375480977,-49.93462547993578,7.142857142857143,0.1793742627274169,BAIXO
CUMARI,2026-06-20,0.0,4,6,5,1,0.0004880656503677,-18.301979326576244,-48.12847505289865,1.2941176470588236,0.17896368238155697,BAIXO
AVELINÓPOLIS,2026-06-20,0.0,6,6,5,1,0.0003972455671677,-16.51911947366258,-49.76146747111399,2.125,0.17663884615769715,BAIXO
TRÊS RANCHOS,2026-06-20,0.0,4,6,5,1,0.0001469365573724,-18.316873966288444,-47.74838358478794,2.3125,0.17581078810474707,BAIXO
MARZAGÃO,2026-06-20,0.0,4,6,5,1,0.0003824780739644,-17.955558865377707,-48.675183437794566,2.111111111111111,0.1757809521684327,BAIXO
MOIPORÁ,2026-06-20,0.0,4,6,5,1,0.0005818392322084,-16.48291057823502,-50.79468243580173,2.4615384615384617,0.16633276895228793,BAIXO
BURITINÓPOLIS,2026-06-20,0.0,4,6,5,1,0.0005914381027906,-14.42314966215634,-46.33303829144667,1.6,0.16621174243723288,BAIXO
BONFINÓPOLIS,2026-06-20,0.0,4,6,5,1,0.0004171816829921,-16.593720196431793,-49.00153550440518,1.375,0.16389924238855247,BAIXO
BURITI ALEGRE,2026-06-20,0.0,4,6,5,1,0.0005065250168718,-18.058745550168023,-49.05309547296925,1.1666666666666667,0.15700248705981726,BAIXO
DAMIANÓPOLIS,2026-06-20,0.0,3,6,5,1,0.0008934333387973,-14.591784557452115,-46.16138493743546,1.1428571428571428,0.15417950022647417,BAIXO
NAZÁRIO,2026-06-20,0.0,6,6,5,1,0.000457792289301,-16.599868890591072,-49.81683600889826,1.3333333333333333,0.1512941234145448,BAIXO
CAMPO LIMPO DE GOIÁS,2026-06-20,0.0,4,6,5,1,0.0002665532523188,-16.299018349281013,-49.110030575894335,1.5625,0.15098128289785953,BAIXO
ISRAELÂNDIA,2026-06-20,0.0,6,6,5,1,0.0006217114638572,-16.357079235135966,-50.868874162608,2.0,0.14939555817595981,BAIXO
SÃO JOÃO DA PARAÚNA,2026-06-20,0.0,5,6,5,1,0.0003381755943546,-16.83029448609981,-50.38551384054304,1.8571428571428568,0.1484384716351243,BAIXO
APARECIDA DO RIO DOCE,2026-06-20,1.3,0,6,5,1,0.0009613638075323,-18.2275046528764,-51.298408339959074,1.3571428571428572,0.14734985229292763,BAIXO
SANTO ANTÔNIO DE GOIÁS,2026-06-20,0.0,4,6,5,1,0.0003182394785302,-16.459177028614274,-49.28880054422419,1.625,0.14016955576003493,BAIXO
NOVA VENEZA,2026-06-20,0.0,4,6,5,1,0.0002525241337757,-16.37386734685885,-49.29800513158261,1.6,0.13665068947035622,BAIXO
PALMINÓPOLIS,2026-06-20,0.0,4,6,5,1,0.0003160243545497,-16.802402853215252,-50.18205094632173,2.142857142857143,0.12915470154929792,BAIXO
FIRMINÓPOLIS,2026-06-20,0.0,4,6,5,1,0.0003101173572684,-16.632875809432132,-50.31542780810252,2.2,0.12802428235561245,BAIXO
BRAZABRANTES,2026-06-20,0.0,6,6,5,1,0.0002414485138733,-16.38638492779754,-49.3872036236477,1.1428571428571428,0.12638862771363069,BAIXO
MORRO AGUDO DE GOIÁS,2026-06-20,0.0,3,6,5,1,0.0002894428667839,-15.304498898497632,-49.98811127634744,2.6666666666666665,0.12445631635462048,BAIXO
SANTA BÁRBARA DE GOIÁS,2026-06-20,0.0,6,6,5,1,0.0001602273012553,-16.595488741575974,-49.68567213368231,2.0,0.121960262577634,BAIXO
CALDAZINHA,2026-06-20,0.0,5,6,5,1,0.00022668102067,-16.743499656574723,-48.98542839082745,1.25,0.11686127502186401,BAIXO
ITAGUARU,2026-06-20,0.0,4,6,5,1,0.000186070414361,-15.78281026598368,-49.60758994825582,5.555555555555555,0.11633342595131853,BAIXO
CAMPESTRE DE GOIÁS,2026-06-20,0.0,6,6,5,1,0.0002392333898928,-16.796398326655236,-49.67954670252682,2.0,0.11485250957514033,BAIXO
NOVA AMÉRICA,2026-06-20,0.0,3,6,5,1,0.0003160243545497,-15.06192828329916,-49.9617065714417,2.5,0.11365642431292133,BAIXO
OURO VERDE DE GOIÁS,2026-06-20,0.0,4,6,5,1,0.0001971460342635,-16.27053798049984,-49.21511768318319,1.4,0.11357480511398871,BAIXO
ITAGUARI,2026-06-20,0.0,3,6,5,1,0.0002813207455221,-15.958521857049124,-49.62738930061074,1.3333333333333333,0.11335963255989066,BAIXO
SANCLERLÂNDIA,2026-06-20,0.0,4,6,5,1,0.0003374372196945,-16.31910344708521,-50.396968692158616,1.5,0.11184797279651547,BAIXO
SÃO PATRÍCIO,2026-06-20,0.0,3,6,5,1,0.0001831169157204,-15.354159533666005,-49.800363421788425,4.5,0.10317943311803854,BAIXO
JOVIÂNIA,2026-06-20,0.1,0,6,5,1,0.0003374372196945,-17.796625241812514,-49.645908107666806,1.8888888888888888,0.10144390686450169,BAIXO
SANTA ROSA DE GOIÁS,2026-06-20,0.0,3,6,5,1,8.934333387973059e-05,-16.05154736618163,-49.49362956819317,1.6666666666666667,0.09412856400350027,BAIXO
DAMOLÂNDIA,2026-06-20,0.0,4,6,5,1,4.504085426994682e-05,-16.248604825879593,-49.32391944079821,1.4285714285714286,0.0877650450451067,BAIXO
NOVA AURORA,2026-06-20,0.0,4,6,5,1,9.525033116103507e-05,-18.08032677087066,-48.312556451501656,1.5,0.08726391392432095,BAIXO
LAGOA SANTA,2026-06-20,1.7,0,6,5,1,0.0002879661174635,-19.18411260260326,-51.28965509319911,1.75,0.084150741920946,BAIXO
RIANÁPOLIS,2026-06-20,0.0,3,6,5,1,0.0004452399200783,-15.471388795648876,-49.44433543377273,1.0,0.07281075145492598,BAIXO
ANHANGUERA,2026-06-20,0.0,4,6,5,1,8.122121261793689e-05,-18.298455841186364,-48.23644304764,9.0,0.07067725363641311,BAIXO
CÓRREGO DO OURO,2026-06-20,0.0,4,6,5,1,0.0003691873300815,-16.371262238930456,-50.57972804506588,1.0,0.06736855484482054,BAIXO
NOVO BRASIL,2026-06-20,0.0,3,6,5,1,0.0004157049336718,-16.06446829111038,-50.5877548005677,1.0,0.06496116152587703,BAIXO
TAQUARAL DE GOIÁS,2026-06-20,0.0,3,6,5,1,0.0003042103599871,-16.03498818375823,-49.60400920317701,1.0,0.06154058017860127,BAIXO
AMERICANO DO BRASIL,2026-06-20,0.0,4,6,5,1,0.0002850126188229,-16.26768690474456,-50.03356390050078,1.0,0.06056784791372812,BAIXO
BURITI DE GOIÁS,2026-06-20,0.0,4,6,5,1,0.0004459782947384,-16.117288760460852,-50.42866144294369,1.0,0.05983266316453776,BAIXO
ARAÇU,2026-06-20,0.0,5,6,5,1,0.0001417679347513,-16.334093281250002,-49.70501984375,1.0,0.0567670621939807,BAIXO
PALMELO,2026-06-20,0.0,5,6,5,1,0.0001122329483447,-17.29286227354363,-48.39789764949551,1.0,0.05587452005906228,BAIXO
ADELÂNDIA,2026-06-20,0.0,4,6,5,1,0.0001786866677594,-16.353762350998142,-50.17813605937417,1.0,0.05317528463557725,BAIXO
PARANAIGUARA,2026-06-20,0.8,0,6,5,1,0.0004171816829921,-18.80418019132733,-50.7270395812168,17.666666666666668,0.04985272196293772,BAIXO
GUARAÍTA,2026-06-20,0.0,3,6,5,1,0.0001203550696065,-15.655710917941402,-50.06909189298791,1.0,0.04856050855289444,BAIXO
JESÚPOLIS,2026-06-20,0.0,3,6,5,1,9.67270804813612e-05,-15.96442854961832,-49.40223259541985,1.0,0.048355133648812,BAIXO
ALOÂNDIA,2026-06-20,0.0,5,6,5,1,6.276184611386032e-05,-17.68815894117647,-49.45926305882353,0.0,0.00036149574578067884,BAIXO
ÁGUA LIMPA,2026-06-20,0.0,4,6,5,1,2.215123980489188e-05,-17.931234278399998,-48.799315130206665,0.0,0.00024410863589101475,BAIXO
NIQUELÂNDIA,2026-06-21,0.0,4,6,6,1,0.0702666861597576,-14.555710756178348,-48.323001755813664,16.54513888888889,0.9666329680549464,ALTO
CAVALCANTE,2026-06-21,0.0,4,6,6,1,0.0610547238995633,-13.605372533203356,-47.74998846789225,13.759398496240602,0.9378386810739894,ALTO
CRISTALINA,2026-06-21,0.0,5,6,6,1,0.0132176447915789,-16.729108968671913,-47.51949739378938,4.318181818181818,0.8752130670920946,ALTO
FORMOSA,2026-06-21,0.0,4,6,6,1,0.0326974450760009,-15.366385635807053,-47.255312528185605,4.150837988826815,0.8529629290213302,ALTO
BARRO ALTO,2026-06-21,0.0,4,6,6,1,0.0070197278941702,-14.9246949793272,-48.89831318663708,2.274193548387097,0.8516715134450021,ALTO
LUZIÂNIA,2026-06-21,0.0,5,6,6,1,0.0070248965167913,-16.41158591502055,-47.9402484582945,3.549504950495049,0.8377567399095867,ALTO
IPAMERI,2026-06-21,0.0,6,6,6,1,0.0082203250915953,-17.453901960073118,-47.994679662267664,5.139896373056994,0.8263972904096027,ALTO
PORANGATU,2026-06-21,0.0,3,6,6,1,0.0130825222287691,-13.295151272205969,-49.25062116604489,8.9,0.8106988157974945,ALTO
MINEIROS,2026-06-21,0.3,0,6,6,1,0.0275280840801993,-17.758011413392754,-52.819223041509886,9.509174311926603,0.7956559581724099,ALTO
PLANALTINA,2026-06-21,0.0,4,6,6,1,0.0220286696113048,-15.297339114149969,-47.82804373552916,6.205128205128205,0.7909916367814054,ALTO
SÃO JOÃO D'ALIANÇA,2026-06-21,0.0,4,6,6,1,0.0174500083436336,-14.47092130372994,-47.44566869827519,4.917582417582418,0.790836949090451,ALTO
NOVA CRIXÁS,2026-06-21,0.0,4,6,6,1,0.0140461011602819,-14.109081491545986,-50.60644025233707,11.0,0.7751948414214428,ALTO
FLORES DE GOIÁS,2026-06-21,0.0,4,6,6,1,0.0204832514475835,-14.69582900883936,-46.88334718801356,4.961538461538462,0.7531423206739116,ALTO
CAIAPÔNIA,2026-06-21,0.6,0,6,6,1,0.0142749973049324,-17.02333953529842,-51.80903000805655,7.114832535885167,0.7464805790964384,ALTO
JATAÍ,2026-06-21,0.2,0,6,6,1,0.0181485107721479,-17.885693026802887,-51.7369228480587,4.259668508287293,0.733989328609346,ALTO
PADRE BERNARDO,2026-06-21,0.0,4,6,6,1,0.0171465363583066,-15.387542873502616,-48.24234321428453,3.821138211382114,0.7145406719626965,ALTO
MONTE ALEGRE DE GOIÁS,2026-06-21,0.0,5,6,6,1,0.0256814090551314,-13.350813143278856,-46.98514054795142,5.746268656716418,0.7084183339291475,ALTO
RIO VERDE,2026-06-21,0.4,0,6,6,1,0.020077883759154,-17.80973337888139,-51.01793797116709,5.575418994413408,0.7034263673268903,ALTO
SÃO MIGUEL DO ARAGUAIA,2026-06-21,0.0,3,6,6,1,0.0108009445288652,-13.03457954651454,-50.31087167757311,5.801418439716312,0.695547247788843,MÉDIO
ALTO PARAÍSO DE GOIÁS,2026-06-21,0.0,4,6,6,1,0.0136045531135044,-14.194794675020932,-47.58800995260268,5.992063492063492,0.6859677697531718,MÉDIO
URUAÇU,2026-06-21,0.0,5,6,6,1,0.0084898318425548,-14.424659723475168,-49.081429732121045,2.8306451612903225,0.678027907885522,MÉDIO
SÃO DOMINGOS,2026-06-21,0.0,3,6,6,1,0.0184815177438814,-13.484742034647564,-46.3952483067699,5.164179104477612,0.6691574510745973,MÉDIO
MINAÇU,2026-06-21,0.0,4,6,6,1,0.0177172999706126,-13.517945024690189,-48.337109129169214,5.321428571428571,0.6659636734063872,MÉDIO
CRIXÁS,2026-06-21,0.0,4,6,6,1,0.0142565379384284,-14.80659158075239,-50.06889904182484,3.504,0.6645377774574124,MÉDIO
NOVA ROMA,2026-06-21,0.0,4,6,6,1,0.0121329724157994,-13.714942640576536,-47.01834764226104,5.73015873015873,0.6332017194640106,MÉDIO
PARAÚNA,2026-06-21,0.2,0,6,6,1,0.0093854803053326,-17.025229406670206,-50.64132283176662,7.314814814814815,0.6314638404299957,MÉDIO
ÁGUA FRIA DE GOIÁS,2026-06-21,0.0,4,6,6,1,0.0101031804750111,-14.959240097702764,-47.8720093319421,3.768421052631579,0.6261115200905217,MÉDIO
CAMPO ALEGRE DE GOIÁS,2026-06-21,0.0,7,6,6,1,0.0035722566058688,-17.478774899824252,-47.74286914863833,3.197674418604651,0.6174453880202653,MÉDIO
ANÁPOLIS,2026-06-21,0.0,5,6,6,1,0.0025665903187268,-16.327248789404404,-48.95399874795129,2.279279279279279,0.6071455803118486,MÉDIO
SILVÂNIA,2026-06-21,0.0,5,6,6,1,0.0024809388581478,-16.63901076782678,-48.5989267608625,2.824074074074074,0.6038287292485294,MÉDIO
CATALÃO,2026-06-21,0.1,0,6,6,1,0.0067051802889407,-17.859620758114687,-47.65795514226879,6.779220779220779,0.5968909312237132,MÉDIO
VILA BOA,2026-06-21,0.0,7,6,6,1,0.0051088142736682,-14.984552679127855,-47.06563145675107,4.597402597402597,0.5884026812209228,MÉDIO
APARECIDA DE GOIÂNIA,2026-06-21,0.0,5,6,6,1,0.0013357197602349,-16.80602601231046,-49.24588428522596,1.7731958762886595,0.5876660343563357,MÉDIO
VILA PROPÍCIO,2026-06-21,0.0,4,6,6,1,0.0090901304412674,-15.174992710889834,-48.74270162202432,3.1449275362318843,0.5847324263335463,MÉDIO
JUSSARA,2026-06-21,0.3,0,6,6,1,0.0097384233928906,-15.53774041723269,-51.30291227238109,7.694117647058824,0.5787478610039474,MÉDIO
ITUMBIARA,2026-06-21,0.2,0,6,6,1,0.0076968174575397,-18.36303539838409,-49.51316782799183,5.170940170940171,0.5781553339808456,MÉDIO
SERRANÓPOLIS,2026-06-21,0.1,0,6,6,1,0.0084580817321678,-18.245444254046,-52.13858145093347,3.9432624113475176,0.5772439698794598,MÉDIO
PIRENÓPOLIS,2026-06-21,0.0,4,6,6,1,0.0060856839490639,-15.78834605245366,-48.98248540918748,2.509433962264151,0.5734903379632242,MÉDIO
MIMOSO DE GOIÁS,2026-06-21,0.0,4,6,6,1,0.0153441638128486,-15.0302729730905,-48.33825202036574,5.0,0.5651625176547196,MÉDIO
GOIÁS,2026-06-21,0.0,5,6,6,1,0.006679337175835,-15.910637681321438,-50.22587344128038,3.4526315789473685,0.5603869295223742,MÉDIO
ALVORADA DO NORTE,2026-06-21,0.0,4,6,6,1,0.0069111868191262,-14.578913930149612,-46.62741788371978,4.3125,0.5577053307319522,MÉDIO
POSSE,2026-06-21,0.0,5,6,6,1,0.0078828878719008,-14.196997106543726,-46.3411011854588,3.027027027027027,0.544114775807926,MÉDIO
COLINAS DO SUL,2026-06-21,0.0,4,6,6,1,0.0162671321380524,-13.94148455899416,-48.086108285372966,5.053571428571429,0.5373037542957495,MÉDIO
ARUANÃ,2026-06-21,0.0,4,6,6,1,0.0055090133394766,-14.80056233565119,-50.9660645783424,5.5,0.5344503116135365,MÉDIO
ARAGUAPAZ,2026-06-21,0.0,4,6,6,1,0.0072685601546451,-15.139882625109504,-50.2765366521584,3.544117647058824,0.5343111553019542,MÉDIO
SÍTIO D'ABADIA,2026-06-21,0.0,4,6,6,1,0.0063869408104104,-14.729138480039394,-46.29929381822457,5.327586206896552,0.5328831100945616,MÉDIO
JARAGUÁ,2026-06-21,0.0,4,6,6,1,0.0027460153611464,-15.684175632573451,-49.36723779617128,2.119047619047619,0.5324339537773455,MÉDIO
ABADIÂNIA,2026-06-21,0.0,5,6,6,1,0.0021287341452501,-16.19915712906121,-48.70814271576387,2.414634146341464,0.5311028292055968,MÉDIO
SENADOR CANEDO,2026-06-21,0.0,7,6,6,1,0.0015070226813928,-16.72174558705297,-49.12425814633367,2.8767123287671232,0.5272938021825382,MÉDIO
CAMPINAÇU,2026-06-21,0.0,3,6,6,1,0.0107566420492554,-13.868181231222769,-48.55699372818981,7.882352941176471,0.5268714681444131,MÉDIO
GOIÂNIA,2026-06-21,0.3,0,6,6,1,0.0056264149104425,-16.627186847284758,-49.26892340187793,3.121387283236994,0.5202360561421208,MÉDIO
COCALZINHO DE GOIÁS,2026-06-21,0.0,4,6,6,1,0.0042582066651603,-15.644454575968023,-48.59695917813067,2.492063492063492,0.517923366207732,MÉDIO
SANTO ANTÔNIO DO DESCOBERTO,2026-06-21,0.0,4,6,6,1,0.002381996653686,-16.02598615253068,-48.28800335138823,2.3076923076923075,0.5103759293269244,MÉDIO
DOVERLÂNDIA,2026-06-21,0.8,0,6,6,1,0.0061203875580916,-16.786897298262215,-52.47629182084975,6.219512195121951,0.4962585585940487,MÉDIO
MONTIVIDIU DO NORTE,2026-06-21,0.0,4,6,6,1,0.0055422401991839,-13.157797966650936,-48.70583895092373,7.462962962962963,0.4950066412960596,MÉDIO
MARA ROSA,2026-06-21,0.0,4,6,6,1,0.0037022105460575,-13.999770100704,-49.390664925569126,2.625,0.49321408838048636,MÉDIO
GOIANÉSIA,2026-06-21,0.0,4,6,6,1,0.0033721570729647,-15.235935983775684,-49.19339896780853,2.430379746835443,0.48068552225511674,MÉDIO
ÁGUAS LINDAS DE GOIÁS,2026-06-21,0.0,5,6,6,1,0.0010477536427713,-15.740323677414423,-48.27077651213715,1.6349206349206349,0.47785871159456506,MÉDIO
CAMPINORTE,2026-06-21,0.0,5,6,6,1,0.0043180150126335,-14.019192669554034,-48.931304030265736,2.239130434782609,0.4701631842808084,MÉDIO
BOM JARDIM DE GOIÁS,2026-06-21,0.1,0,6,6,1,0.006982809161162,-16.169600227866493,-52.08811808319062,3.295238095238095,0.46468890123390716,MÉDIO
CALDAS NOVAS,2026-06-21,0.1,0,6,6,1,0.0032953661083077,-17.728174181219167,-48.609976896734885,3.2033898305084745,0.4598563412991312,MÉDIO
CABECEIRAS,2026-06-21,0.0,4,6,6,1,0.0021161817760273,-15.753711869204832,-46.99550025639795,4.791666666666667,0.4539533695772059,MÉDIO
BONÓPOLIS,2026-06-21,0.0,3,6,6,1,0.0027253408706618,-13.56457655433514,-49.78488929257367,3.725,0.4497394186029756,MÉDIO
IACIARA,2026-06-21,0.0,4,6,6,1,0.0029911557483205,-14.108153980696324,-46.79592329445353,7.594202898550725,0.4488819553104594,MÉDIO
NOVA GLÓRIA,2026-06-21,0.0,5,6,6,1,0.0023332639261152,-15.080904022970325,-49.5127373729181,2.68,0.44725536269887695,MÉDIO
SÃO LUIZ DO NORTE,2026-06-21,0.0,5,6,6,1,0.0024484503731007,-14.905980936295272,-49.283790673643686,3.3375,0.4448520633146602,MÉDIO
AMARALINA,2026-06-21,0.0,5,6,6,1,0.0035235238782981,-13.848529827205882,-49.56903226128027,2.5098039215686274,0.4426321524247474,MÉDIO
MUNDO NOVO,2026-06-21,0.0,5,6,6,1,0.0027504456091074,-13.777534650060309,-50.25180240334917,2.9692307692307693,0.44184731292456886,MÉDIO
ITAPACI,2026-06-21,0.0,4,6,6,1,0.0027290327439626,-14.955491253186096,-49.62493326485581,2.6666666666666665,0.4404642062058578,MÉDIO
ALEXÂNIA,2026-06-21,0.0,5,6,6,1,0.0011895215775226,-16.07491682926853,-48.49287370127031,1.9056603773584904,0.4400405045508968,MÉDIO
CORUMBÁ DE GOIÁS,2026-06-21,0.0,4,6,6,1,0.0013837141131455,-15.898613517797502,-48.71659334472278,2.606060606060606,0.4391799517144204,MÉDIO
MONTES CLAROS DE GOIÁS,2026-06-21,0.1,0,6,6,1,0.0036261579560608,-15.873326931416043,-51.59664771775818,4.019230769230769,0.43274572157156443,MÉDIO
VALPARAÍSO DE GOIÁS,2026-06-21,0.0,5,6,6,1,0.0004061060630896,-16.08965315501241,-47.98624179015667,2.023809523809524,0.42828411131136973,MÉDIO
MUTUNÓPOLIS,2026-06-21,0.0,3,6,6,1,0.0021346411425314,-13.711606278817616,-49.31418113591433,5.033898305084746,0.42483255637530853,MÉDIO
ITAPURANGA,2026-06-21,0.0,4,6,6,1,0.0018466750250678,-15.577224810549591,-49.933817512866845,2.2222222222222223,0.424715805901162,MÉDIO
SANTA RITA DO NOVO DESTINO,2026-06-21,0.0,4,6,6,1,0.0025961253051333,-14.819117187607606,-49.03969360530454,4.5588235294117645,0.42402807414527816,MÉDIO
BELA VISTA DE GOIÁS,2026-06-21,0.0,7,6,6,1,0.002201094861946,-16.95106540676648,-48.933601465935,1.6,0.41734201491803197,MÉDIO
NOVO PLANALTO,2026-06-21,0.0,6,6,6,1,0.0015786450234286,-13.224864863175409,-49.711211164352655,4.092307692307692,0.41594682763194374,MÉDIO
ITARUMÃ,2026-06-21,0.2,0,6,6,1,0.0046421614884451,-18.86462245523424,-51.33580667861621,4.627118644067797,0.41591898647389863,MÉDIO
SANTA HELENA DE GOIÁS,2026-06-21,0.4,0,6,6,1,0.0065552902329276,-17.809635495091406,-50.550434417318826,5.549295774647887,0.41233905653935526,MÉDIO
CIDADE OCIDENTAL,2026-06-21,0.0,5,6,6,1,0.0009805615486965,-16.103552382328953,-47.86022791897977,1.9230769230769231,0.4102033365312359,MÉDIO
TERESINA DE GOIÁS,2026-06-21,0.0,4,6,6,1,0.0045387890360223,-13.661127323864664,-47.23879651180497,3.9615384615384617,0.40937694528765317,MÉDIO
CORUMBAÍBA,2026-06-21,0.0,5,6,6,1,0.0016332847482806,-18.048104715395148,-48.4749049622824,2.3191489361702127,0.4066204836332992,MÉDIO
PIRANHAS,2026-06-21,0.7,0,6,6,1,0.0030155221121059,-16.447787530113146,-51.854078169184085,3.371794871794872,0.40279637452509987,MÉDIO
SANTA TEREZINHA DE GOIÁS,2026-06-21,0.0,4,6,6,1,0.0023960257722291,-14.32429478078316,-49.65930833489798,4.050847457627119,0.40072598672375104,MÉDIO
SANTA ISABEL,2026-06-21,0.0,4,6,6,1,0.0024432817504795,-15.200546008094864,-49.40043024932847,6.6415094339622645,0.3989598324189107,BAIXO
PIRACANJUBA,2026-06-21,0.1,0,6,6,1,0.0031550749228767,-17.359788624438703,-49.008963459189445,2.4878048780487805,0.39507795400185053,BAIXO
GUARANI DE GOIÁS,2026-06-21,0.0,5,6,6,1,0.0039702405476967,-13.896234842419478,-46.35992556272503,3.25,0.39340894015086775,BAIXO
GOIATUBA,2026-06-21,0.2,0,6,6,1,0.0047403653182468,-17.991078799174332,-49.72506729400575,2.75,0.39062993115086314,BAIXO
NOVO GAMA,2026-06-21,0.0,5,6,6,1,0.0008040900049175,-16.10973108267564,-48.07263803458282,1.9787234042553192,0.38994665280525265,BAIXO
MORRINHOS,2026-06-21,0.3,0,6,6,1,0.0046879407173752,-17.747080471125827,-49.18201398317284,2.7681159420289854,0.38958889387824197,BAIXO
ANICUNS,2026-06-21,0.3,0,6,6,1,0.0028693239293936,-16.386618352812665,-49.96569453715062,2.6095238095238096,0.3877890752493038,BAIXO
EDÉIA,2026-06-21,0.1,0,6,6,1,0.0040093744046854,-17.509361464280108,-50.00172531667008,2.9791666666666665,0.3836834539197634,BAIXO
SANTA TEREZA DE GOIÁS,2026-06-21,0.0,4,6,6,1,0.0022261996003916,-13.615351655700474,-48.99769110324295,3.5405405405405403,0.37722328963830404,BAIXO
ACREÚNA,2026-06-21,0.3,0,6,6,1,0.0050453140528942,-17.48826970830257,-50.32369400069289,3.42,0.374206177159652,BAIXO
ITABERAÍ,2026-06-21,0.3,0,6,6,1,0.0036438789479047,-16.076051965486666,-49.86875528845477,3.0,0.37305322547059344,BAIXO
BOM JESUS DE GOIÁS,2026-06-21,0.2,0,6,6,1,0.0043556721203019,-18.192311694542585,-49.92073113922121,2.872727272727273,0.361845152802348,BAIXO
BALIZA,2026-06-21,0.7,0,6,6,1,0.0094534107740676,-16.335498056525363,-52.47044379945877,2.369565217391304,0.3615954652362758,BAIXO
CAMPOS BELOS,2026-06-21,0.0,4,6,6,1,0.0053953036418114,-12.986995843211018,-46.42094914457776,2.765957446808511,0.35771471167120894,BAIXO
URUTAÍ,2026-06-21,0.0,6,6,6,1,0.001073596755877,-17.44233047699522,-48.19865040570893,2.357142857142857,0.34913150812310095,BAIXO
TROMBAS,2026-06-21,0.0,4,6,6,1,0.0034592852828639,-13.45565441683509,-48.69444724203579,1.818181818181818,0.34348113502407324,BAIXO
APORÉ,2026-06-21,0.3,0,6,6,1,0.0023280953034941,-18.7073526543005,-52.08304620766298,4.466666666666667,0.3401494732038608,BAIXO
CEZARINA,2026-06-21,0.6,0,6,6,1,0.0010817188771388,-17.034689299189036,-49.7756844762151,1.1111111111111112,0.33717393255341843,BAIXO
FAINA,2026-06-21,0.0,4,6,6,1,0.0040012522834236,-15.450502453569465,-50.35323063719383,2.484848484848485,0.33696501347779995,BAIXO
FORMOSO,2026-06-21,0.0,4,6,6,1,0.0027740735982326,-13.7157591183698,-48.828383563721786,1.8333333333333333,0.3333538852082431,BAIXO
DIVINÓPOLIS DE GOIÁS,2026-06-21,0.0,3,6,6,1,0.001997303455741,-13.286303429360114,-46.52383420100133,3.909090909090909,0.32747354107646653,BAIXO
PORTEIRÃO,2026-06-21,0.2,0,6,6,1,0.002961620761914,-17.91222565304729,-50.164965023771295,3.433333333333333,0.32567052295281496,BAIXO
RUBIATABA,2026-06-21,0.0,4,6,6,1,0.0012448996770349,-15.197347826385103,-49.85541149603293,2.3846153846153846,0.3252277995018351,BAIXO
MOZARLÂNDIA,2026-06-21,0.0,4,6,6,1,0.0020120709489443,-14.81638418252236,-50.609316979892746,2.8541666666666665,0.32341366642463837,BAIXO
RIALMA,2026-06-21,0.0,4,6,6,1,0.0012478531756755,-15.319958184167618,-49.53010326892392,1.5483870967741935,0.32279549893718096,BAIXO
MAMBAÍ,2026-06-21,0.0,4,6,6,1,0.005212186726091,-14.387997990140692,-46.051088000383096,5.1923076923076925,0.32246924035386987,BAIXO
TURVELÂNDIA,2026-06-21,0.1,0,6,6,1,0.0033884013154882,-17.8061094010701,-50.31150433875028,2.41025641025641,0.32141490884309726,BAIXO
MATRINCHÃ,2026-06-21,0.0,5,6,6,1,0.0013534407520788,-15.332925918372275,-50.75330754036656,3.5454545454545454,0.3178390327438402,BAIXO
PALMEIRAS DE GOIÁS,2026-06-21,1.1,0,6,6,1,0.0026522417793057,-16.814514481269185,-49.9450199537401,2.2916666666666665,0.31730344155072665,BAIXO
HIDROLÂNDIA,2026-06-21,0.2,0,6,6,1,0.001757331691188,-17.00595303936355,-49.2631795818899,2.1594202898550723,0.3171370695930239,BAIXO
QUIRINÓPOLIS,2026-06-21,0.6,0,6,6,1,0.0039104322002235,-18.344498864270253,-50.57761418506451,3.3095238095238093,0.31691089117556404,BAIXO
LEOPOLDO DE BULHÕES,2026-06-21,0.0,5,6,6,1,0.0009037705840395,-16.556636131106096,-48.89337232999825,1.9428571428571428,0.3145792281982711,BAIXO
UIRAPURU,2026-06-21,0.0,5,6,6,1,0.0023568919152404,-14.1658704952681,-49.9660646641288,1.8823529411764703,0.3119171829059689,BAIXO
MOSSÂMEDES,2026-06-21,0.0,7,6,6,1,0.002096984034863,-16.138102134284225,-50.1950255261411,1.875,0.30869064304066196,BAIXO
URUANA,2026-06-21,0.0,4,6,6,1,0.0009901604192786,-15.537768557761284,-49.65225244233562,2.5294117647058822,0.30019448124179027,BAIXO
HIDROLINA,2026-06-21,0.0,4,6,6,1,0.0009628405568526,-14.78351237067298,-49.29993852784245,2.740740740740741,0.2999973749662115,BAIXO
NOVA IGUAÇU DE GOIÁS,2026-06-21,0.0,4,6,6,1,0.0017403490740043,-14.335840325249317,-49.31212409374217,2.3043478260869565,0.2998886536370169,BAIXO
GOIANÁPOLIS,2026-06-21,0.0,5,6,6,1,0.0013534407520788,-16.52798048733482,-49.09369703759325,1.7692307692307692,0.29881688562395997,BAIXO
SIMOLÂNDIA,2026-06-21,0.0,3,6,6,1,0.0011799227069405,-14.434586326028946,-46.58882654789143,2.5789473684210527,0.29369805177255326,BAIXO
PIRES DO RIO,2026-06-21,0.1,0,6,6,1,0.0018075411680791,-17.230327492515848,-48.40629032850881,3.636363636363636,0.28714639454305535,BAIXO
ORIZONA,2026-06-21,1.3,0,6,6,1,0.0020201930702061,-17.02708940860277,-48.16569268300261,2.0625,0.2871056108792278,BAIXO
PETROLINA DE GOIÁS,2026-06-21,0.0,5,6,6,1,0.0007716015198704,-16.11674724559263,-49.318512368591655,3.56,0.28688781471026065,BAIXO
SANTA FÉ DE GOIÁS,2026-06-21,0.3,0,6,6,1,0.0017765294323523,-15.695835336846852,-51.16880663261477,4.266666666666667,0.2774997588510569,BAIXO
SÃO FRANCISCO DE GOIÁS,2026-06-21,0.0,4,6,6,1,0.000774555018511,-15.930856959393246,-49.25922517675899,2.2580645161290325,0.27732473522817347,BAIXO
GAMELEIRA DE GOIÁS,2026-06-21,0.0,5,6,6,1,0.0005648566150247,-16.393084698423134,-48.71174726623623,2.0303030303030303,0.2763881666656821,BAIXO
GUARINOS,2026-06-21,0.0,4,6,6,1,0.0012316089331519,-14.677563689499642,-49.737239130745,2.75,0.27289170553901243,BAIXO
CAÇU,2026-06-21,0.3,0,6,6,1,0.0017366572007035,-18.69115169498673,-51.169522816602274,4.6,0.2724487601547583,BAIXO
ALTO HORIZONTE,2026-06-21,0.0,4,6,6,1,0.0009111543306412,-14.162393972965113,-49.45279801107309,2.4705882352941178,0.2718502950469011,BAIXO
CAMPOS VERDES,2026-06-21,0.0,4,6,6,1,0.0009022938347192,-14.200869051269477,-49.67078102066461,3.28,0.2714921307891424,BAIXO
INDIARA,2026-06-21,0.4,0,6,6,1,0.0023591070392209,-17.22357364537349,-49.96111627583188,2.575,0.26696837409900354,BAIXO
PILAR DE GOIÁS,2026-06-21,0.0,4,6,6,1,0.0022653334573802,-14.563053642806697,-49.51029317946296,1.4210526315789471,0.26443031854190424,BAIXO
TRINDADE,2026-06-21,0.3,0,6,6,1,0.0016598662360465,-16.650075769653657,-49.51836291274552,1.6708860759493671,0.2634412532864526,BAIXO
MAURILÂNDIA,2026-06-21,0.1,0,6,6,1,0.0023303104274746,-18.03750092993941,-50.36063856125698,4.36,0.25696672302431717,BAIXO
FAZENDA NOVA,2026-06-21,0.3,0,6,6,1,0.0038077981224609,-16.080235263157753,-50.93137671149489,2.647058823529412,0.2542875014328769,BAIXO
ITAJÁ,2026-06-21,0.4,0,6,6,1,0.0019995185797215,-19.086946202574843,-51.34562507108249,2.5384615384615383,0.25415116671397525,BAIXO
NERÓPOLIS,2026-06-21,0.0,7,6,6,1,0.0010041895378217,-16.425056587028248,-49.17034091583095,1.8571428571428568,0.24850246705227486,BAIXO
ITAPIRAPUÃ,2026-06-21,0.2,0,6,6,1,0.0013726384932431,-15.75718984044679,-50.7465760866374,2.4242424242424243,0.24739191062126376,BAIXO
VICENTINÓPOLIS,2026-06-21,0.1,0,6,6,1,0.0018865472567166,-17.717102371829977,-49.92046965643163,4.85,0.24669474218622234,BAIXO
ESTRELA DO NORTE,2026-06-21,0.0,4,6,6,1,0.0006290952104589,-13.815008598965576,-49.04348551590312,3.269230769230769,0.24541772943070164,BAIXO
TEREZÓPOLIS DE GOIÁS,2026-06-21,0.0,7,6,6,1,0.0007612642746281,-16.451781768427683,-49.07980840150495,2.125,0.2428304929668382,BAIXO
OUVIDOR,2026-06-21,0.0,5,6,6,1,0.0006859500592914,-18.22269684670895,-47.73785347238525,1.36,0.23987371001149146,BAIXO
SANTA CRUZ DE GOIÁS,2026-06-21,0.3,0,6,6,1,0.0013851908624659,-17.372324572144244,-48.58985156059331,2.351351351351352,0.23824729162487374,BAIXO
BRITÂNIA,2026-06-21,0.2,0,6,6,1,0.0024949679766909,-15.098256086081884,-51.20240394542521,1.631578947368421,0.23603876908213708,BAIXO
CARMO DO RIO VERDE,2026-06-21,0.0,4,6,6,1,0.0007354211615224,-15.426910428711976,-49.742093983937615,2.5217391304347827,0.2321998339574044,BAIXO
PEROLÂNDIA,2026-06-21,0.3,0,6,6,1,0.0024462352491202,-17.53130275403183,-52.205615580294655,2.4074074074074074,0.2302891706501579,BAIXO
GUAPÓ,2026-06-21,0.2,0,6,6,1,0.0013896211104268,-16.923914459668058,-49.58948320140861,2.5,0.22784254506562807,BAIXO
INHUMAS,2026-06-21,0.2,0,6,6,1,0.0011282364807291,-16.318242778189063,-49.50186836687853,1.9130434782608696,0.22607202727223583,BAIXO
IPIRANGA DE GOIÁS,2026-06-21,0.0,4,6,6,1,0.0008085202528785,-15.155239440421736,-49.6667347648474,1.8928571428571428,0.2254985808892102,BAIXO
CACHOEIRA ALTA,2026-06-21,0.2,0,6,6,1,0.0012825567847032,-18.461936889018936,-50.98679602687277,3.4827586206896552,0.2228617941421887,BAIXO
MONTIVIDIU,2026-06-21,0.5,0,6,6,1,0.0017492095699262,-17.302834146829042,-51.19610715003383,1.625,0.22212735523122712,BAIXO
SANTA RITA DO ARAGUAIA,2026-06-21,0.8,0,6,6,1,0.0016871860984725,-17.30441364463477,-53.10068255768836,2.236842105263158,0.22133900224977415,BAIXO
JANDAIA,2026-06-21,0.2,0,6,6,1,0.0011570330924755,-17.140823818775164,-50.18439081477384,3.55,0.22038484192256946,BAIXO
GOIANDIRA,2026-06-21,0.0,7,6,6,1,0.0006940721805532,-18.109377022796597,-48.1276924891904,1.5555555555555556,0.218762187428274,BAIXO
SANTO ANTÔNIO DA BARRA,2026-06-21,0.4,0,6,6,1,0.0012611439195585,-17.55961474151254,-50.63551540775774,3.2962962962962963,0.21592178378471258,BAIXO
ARAGARÇAS,2026-06-21,0.0,1,6,6,1,0.0016207323790579,-15.9954744133776,-52.195114826594455,1.809523809523809,0.21568090603151507,BAIXO
IPORÁ,2026-06-21,0.9,0,6,6,1,0.0012958475285861,-16.39958999360689,-51.174760035598624,1.6444444444444444,0.21443308157407137,BAIXO
PALESTINA DE GOIÁS,2026-06-21,1.4,0,6,6,1,0.0016318079989603,-16.713753711842983,-51.42754199497641,2.933333333333333,0.21307997475008433,BAIXO
CHAPADÃO DO CÉU,2026-06-21,0.5,0,6,6,1,0.0062939056032299,-18.41837474627293,-52.650980123044505,15.272727272727272,0.21293464611464114,BAIXO
IVOLÂNDIA,2026-06-21,1.3,0,6,6,1,0.0014804411936269,-16.679987246814406,-50.98325370232422,3.4878048780487805,0.21173386470640482,BAIXO
PANAMÁ,2026-06-21,0.3,0,6,6,1,0.0011511260951942,-18.199317807602675,-49.40058551258638,2.875,0.20885128296982458,BAIXO
VIANÓPOLIS,2026-06-21,0.2,0,6,6,1,0.0007620026492882,-16.848283967930477,-48.46851922795139,2.1052631578947367,0.20493415036755763,BAIXO
JAUPACI,2026-06-21,0.2,0,6,6,1,0.0010263407776266,-16.20973022325548,-51.05550430467066,4.142857142857143,0.20262039197733694,BAIXO
PONTALINA,2026-06-21,0.1,0,6,6,1,0.0014390922126578,-17.54112629308756,-49.56409835329973,1.3846153846153846,0.19994531085100498,BAIXO
ARENÓPOLIS,2026-06-21,0.9,0,6,6,1,0.0016960465943945,-16.361902054815086,-51.55715988814804,2.2413793103448274,0.19965732990308654,BAIXO
DIORAMA,2026-06-21,0.7,0,6,6,1,0.0011001782436429,-16.22661972062711,-51.389931230721885,4.384615384615385,0.19588119684465968,BAIXO
CASTELÂNDIA,2026-06-21,0.3,0,6,6,1,0.0014516445818805,-18.147960130853747,-50.30679359237395,2.7222222222222223,0.1956197246441051,BAIXO
DAVINÓPOLIS,2026-06-21,0.0,5,6,6,1,0.0007597875253077,-18.113605118464037,-47.53297332981958,2.357142857142857,0.1934735615368703,BAIXO
PORTELÂNDIA,2026-06-21,0.6,0,6,6,1,0.001209457693347,-17.363742774222114,-52.70044038012558,2.230769230769231,0.19274236272133743,BAIXO
MAIRIPOTABA,2026-06-21,0.2,0,6,6,1,0.0006999791778345,-17.295161367113327,-49.44670063542476,3.347826086956522,0.18938355542831561,BAIXO
AURILÂNDIA,2026-06-21,0.4,0,6,6,1,0.00081516562482,-16.694217641941965,-50.54701395836094,3.333333333333333,0.1839111394857802,BAIXO
CERES,2026-06-21,0.0,5,6,6,1,0.0003994606911482,-15.280732075215544,-49.628100932957885,2.357142857142857,0.18267797170614195,BAIXO
CACHOEIRA DOURADA,2026-06-21,0.1,0,6,6,1,0.0009392125677274,-18.46651639403071,-49.55177475564167,2.5,0.16871534369027666,BAIXO
INACIOLÂNDIA,2026-06-21,0.0,1,6,6,1,0.0013017545258674,-18.422363375480977,-49.93462547993578,7.142857142857143,0.16750960666096795,BAIXO
HEITORAÍ,2026-06-21,0.0,4,6,6,1,0.0004681295345433,-15.737018243255712,-49.79072401383959,1.8,0.164996588734422,BAIXO
CRISTIANÓPOLIS,2026-06-21,0.0,6,6,6,1,0.0005449204992003,-17.206932724384384,-48.69296888350953,1.4615384615384617,0.16463021937670075,BAIXO
ITAUÇU,2026-06-21,0.0,5,6,6,1,0.0005353216286182,-16.19395275886309,-49.59347382261099,1.8,0.16150175558118324,BAIXO
GOIANIRA,2026-06-21,0.3,0,6,6,1,0.0006224498385174,-16.508575399186565,-49.41469315151372,1.4594594594594594,0.161117883731999,BAIXO
APARECIDA DO RIO DOCE,2026-06-21,1.0,0,6,6,1,0.0009613638075323,-18.2275046528764,-51.298408339959074,1.3571428571428572,0.15908235542371663,BAIXO
PROFESSOR JAMIL,2026-06-21,0.5,0,6,6,1,0.0010381547721892,-17.327766046172016,-49.24779400353557,2.333333333333333,0.15513940969154214,BAIXO
SÃO MIGUEL DO PASSA QUATRO,2026-06-21,0.0,5,6,6,1,0.0004127514350311,-17.005010859807335,-48.6779096365864,1.181818181818182,0.1540757031849054,BAIXO
CACHOEIRA DE GOIÁS,2026-06-21,0.4,0,6,6,1,0.0008033516302574,-16.743051878299504,-50.687902715799886,1.9047619047619049,0.15041802655572106,BAIXO
CUMARI,2026-06-21,0.0,5,6,6,1,0.0004880656503677,-18.301979326576244,-48.12847505289865,1.2941176470588236,0.14764751904422935,BAIXO
VARJÃO,2026-06-21,0.6,0,6,6,1,0.0008159039994801,-17.057239672517852,-49.63849902778105,1.9166666666666667,0.14588316606855106,BAIXO
BURITINÓPOLIS,2026-06-21,0.0,5,6,6,1,0.0005914381027906,-14.42314966215634,-46.33303829144667,1.6,0.1437891481285098,BAIXO
TRÊS RANCHOS,2026-06-21,0.0,5,6,6,1,0.0001469365573724,-18.316873966288444,-47.74838358478794,2.3125,0.14360697763845295,BAIXO
BONFINÓPOLIS,2026-06-21,0.0,5,6,6,1,0.0004171816829921,-16.593720196431793,-49.00153550440518,1.375,0.1368855986580303,BAIXO
DAMIANÓPOLIS,2026-06-21,0.0,4,6,6,1,0.0008934333387973,-14.591784557452115,-46.16138493743546,1.1428571428571428,0.1364136085300971,BAIXO
EDEALINA,2026-06-21,0.4,0,6,6,1,0.0006482929516231,-17.41358594607326,-49.76627082483966,1.75,0.1293526055193876,BAIXO
SÃO LUÍS DE MONTES BELOS,2026-06-21,0.5,0,6,6,1,0.0005833159815288,-16.469151982594024,-50.3923408472066,2.25,0.12681168172207963,BAIXO
CAMPO LIMPO DE GOIÁS,2026-06-21,0.0,5,6,6,1,0.0002665532523188,-16.299018349281013,-49.110030575894335,1.5625,0.12560236929965207,BAIXO
NOVA VENEZA,2026-06-21,0.0,5,6,6,1,0.0002525241337757,-16.37386734685885,-49.29800513158261,1.6,0.1212488940401594,BAIXO
MOIPORÁ,2026-06-21,0.4,0,6,6,1,0.0005818392322084,-16.48291057823502,-50.79468243580173,2.4615384615384617,0.11561874313329781,BAIXO
TURVÂNIA,2026-06-21,0.4,0,6,6,1,0.0005109552648328,-16.5749332857626,-50.13386843949185,2.9166666666666665,0.11528354632721403,BAIXO
RIO QUENTE,2026-06-21,0.2,0,6,6,1,0.0006002985987125,-17.794891918495523,-48.787827332868765,1.8571428571428568,0.1130699565293147,BAIXO
CATURAÍ,2026-06-21,0.2,0,6,6,1,0.0004157049336718,-16.46434919145576,-49.55619428460128,2.125,0.1118334143800497,BAIXO
ABADIA DE GOIÁS,2026-06-21,0.6,0,6,6,1,0.0004105363110506,-16.78893560640398,-49.43279950787229,1.7179487179487178,0.11002790256605027,BAIXO
CROMÍNIA,2026-06-21,0.6,0,6,6,1,0.0004969261462897,-17.253757641416556,-49.343018999846976,1.933333333333333,0.10920835141443018,BAIXO
AMORINÓPOLIS,2026-06-21,1.0,0,6,6,1,0.0004725597825043,-16.66506804069733,-51.10984947764403,2.1875,0.10851028169897685,BAIXO
MORRO AGUDO DE GOIÁS,2026-06-21,0.0,4,6,6,1,0.0002894428667839,-15.304498898497632,-49.98811127634744,2.6666666666666665,0.10694971660268611,BAIXO
ITAGUARU,2026-06-21,0.0,5,6,6,1,0.000186070414361,-15.78281026598368,-49.60758994825582,5.555555555555555,0.10677849550090114,BAIXO
NOVA AMÉRICA,2026-06-21,0.0,4,6,6,1,0.0003160243545497,-15.06192828329916,-49.9617065714417,2.5,0.10303456237235158,BAIXO
ARAGOIÂNIA,2026-06-21,0.1,0,6,6,1,0.0003322685970733,-16.91901903566752,-49.41650422930775,1.4666666666666666,0.09905116885941559,BAIXO
CALDAZINHA,2026-06-21,0.0,6,6,6,1,0.00022668102067,-16.743499656574723,-48.98542839082745,1.25,0.09854117221548944,BAIXO
ITAGUARI,2026-06-21,0.0,4,6,6,1,0.0002813207455221,-15.958521857049124,-49.62738930061074,1.3333333333333333,0.09778902038636339,BAIXO
OURO VERDE DE GOIÁS,2026-06-21,0.0,5,6,6,1,0.0001971460342635,-16.27053798049984,-49.21511768318319,1.4,0.09658470318084661,BAIXO
MARZAGÃO,2026-06-21,0.3,0,6,6,1,0.0003824780739644,-17.955558865377707,-48.675183437794566,2.111111111111111,0.09382962479073052,BAIXO
SÃO PATRÍCIO,2026-06-21,0.0,4,6,6,1,0.0001831169157204,-15.354159533666005,-49.800363421788425,4.5,0.09314607142336358,BAIXO
AVELINÓPOLIS,2026-06-21,1.0,0,6,6,1,0.0003972455671677,-16.51911947366258,-49.76146747111399,2.125,0.09017805337981755,BAIXO
BURITI ALEGRE,2026-06-21,0.1,0,6,6,1,0.0005065250168718,-18.058745550168023,-49.05309547296925,1.1666666666666667,0.08790698523060575,BAIXO
SANTO ANTÔNIO DE GOIÁS,2026-06-21,0.1,0,6,6,1,0.0003182394785302,-16.459177028614274,-49.28880054422419,1.625,0.08212991492735057,BAIXO
JOVIÂNIA,2026-06-21,0.3,0,6,6,1,0.0003374372196945,-17.796625241812514,-49.645908107666806,1.8888888888888888,0.08091335153884734,BAIXO
SANTA ROSA DE GOIÁS,2026-06-21,0.0,4,6,6,1,8.934333387973059e-05,-16.05154736618163,-49.49362956819317,1.6666666666666667,0.07939418929384863,BAIXO
NOVA AURORA,2026-06-21,0.0,5,6,6,1,9.525033116103507e-05,-18.08032677087066,-48.312556451501656,1.5,0.0779054820485008,BAIXO
SÃO JOÃO DA PARAÚNA,2026-06-21,0.8,0,6,6,1,0.0003381755943546,-16.83029448609981,-50.38551384054304,1.8571428571428568,0.07692210661520944,BAIXO
FIRMINÓPOLIS,2026-06-21,0.7,0,6,6,1,0.0003101173572684,-16.632875809432132,-50.31542780810252,2.2,0.07621382956553499,BAIXO
DAMOLÂNDIA,2026-06-21,0.0,5,6,6,1,4.504085426994682e-05,-16.248604825879593,-49.32391944079821,1.4285714285714286,0.07553653255251357,BAIXO
ISRAELÂNDIA,2026-06-21,0.3,0,6,6,1,0.0006217114638572,-16.357079235135966,-50.868874162608,2.0,0.07512088483060783,BAIXO
BRAZABRANTES,2026-06-21,0.1,0,6,6,1,0.0002414485138733,-16.38638492779754,-49.3872036236477,1.1428571428571428,0.0746420719234664,BAIXO
PALMINÓPOLIS,2026-06-21,0.8,0,6,6,1,0.0003160243545497,-16.802402853215252,-50.18205094632173,2.142857142857143,0.07447897039665413,BAIXO
NAZÁRIO,2026-06-21,1.1,0,6,6,1,0.000457792289301,-16.599868890591072,-49.81683600889826,1.3333333333333333,0.07374568103008326,BAIXO
SANCLERLÂNDIA,2026-06-21,0.2,0,6,6,1,0.0003374372196945,-16.31910344708521,-50.396968692158616,1.5,0.07023378363759768,BAIXO
LAGOA SANTA,2026-06-21,0.3,0,6,6,1,0.0002879661174635,-19.18411260260326,-51.28965509319911,1.75,0.06750554246674395,BAIXO
RIANÁPOLIS,2026-06-21,0.0,4,6,6,1,0.0004452399200783,-15.471388795648876,-49.44433543377273,1.0,0.06593591469954374,BAIXO
ANHANGUERA,2026-06-21,0.0,5,6,6,1,8.122121261793689e-05,-18.298455841186364,-48.23644304764,9.0,0.06516763414320172,BAIXO
NOVO BRASIL,2026-06-21,0.1,0,6,6,1,0.0004157049336718,-16.06446829111038,-50.5877548005677,1.0,0.05790486792855631,BAIXO
TAQUARAL DE GOIÁS,2026-06-21,0.0,4,6,6,1,0.0003042103599871,-16.03498818375823,-49.60400920317701,1.0,0.05508580568014757,BAIXO
CAMPESTRE DE GOIÁS,2026-06-21,0.7,0,6,6,1,0.0002392333898928,-16.796398326655236,-49.67954670252682,2.0,0.054484394768244473,BAIXO
SANTA BÁRBARA DE GOIÁS,2026-06-21,1.2,0,6,6,1,0.0001602273012553,-16.595488741575974,-49.68567213368231,2.0,0.05061852117226825,BAIXO
ARAÇU,2026-06-21,0.0,6,6,6,1,0.0001417679347513,-16.334093281250002,-49.70501984375,1.0,0.04888678981951551,BAIXO
PARANAIGUARA,2026-06-21,0.8,0,6,6,1,0.0004171816829921,-18.80418019132733,-50.7270395812168,17.666666666666668,0.046698955396201544,BAIXO
PALMELO,2026-06-21,0.0,6,6,6,1,0.0001122329483447,-17.29286227354363,-48.39789764949551,1.0,0.04588806430057513,BAIXO
BURITI DE GOIÁS,2026-06-21,0.2,0,6,6,1,0.0004459782947384,-16.117288760460852,-50.42866144294369,1.0,0.04415315805749076,BAIXO
JESÚPOLIS,2026-06-21,0.0,4,6,6,1,9.67270804813612e-05,-15.96442854961832,-49.40223259541985,1.0,0.04293560922575855,BAIXO
CÓRREGO DO OURO,2026-06-21,0.3,0,6,6,1,0.0003691873300815,-16.371262238930456,-50.57972804506588,1.0,0.04281769261573039,BAIXO
GUARAÍTA,2026-06-21,0.0,4,6,6,1,0.0001203550696065,-15.655710917941402,-50.06909189298791,1.0,0.0411512532831193,BAIXO
AMERICANO DO BRASIL,2026-06-21,0.2,0,6,6,1,0.0002850126188229,-16.26768690474456,-50.03356390050078,1.0,0.040662511603285406,BAIXO
ADELÂNDIA,2026-06-21,0.3,0,6,6,1,0.0001786866677594,-16.353762350998142,-50.17813605937417,1.0,0.03601227343352046,BAIXO
ALOÂNDIA,2026-06-21,0.1,0,6,6,1,6.276184611386032e-05,-17.68815894117647,-49.45926305882353,0.0,0.00032752848685686586,BAIXO
ÁGUA LIMPA,2026-06-21,0.7,0,6,6,1,2.215123980489188e-05,-17.931234278399998,-48.799315130206665,0.0,0.0002312799105503088,BAIXO
NIQUELÂNDIA,2026-06-22,0.0,5,6,0,1,0.0702666861597576,-14.555710756178348,-48.323001755813664,16.54513888888889,0.974953495203889,ALTO
CAVALCANTE,2026-06-22,0.0,5,6,0,1,0.0610547238995633,-13.605372533203356,-47.74998846789225,13.759398496240602,0.9411809511250389,ALTO
BARRO ALTO,2026-06-22,0.0,5,6,0,1,0.0070197278941702,-14.9246949793272,-48.89831318663708,2.274193548387097,0.9116264752620727,ALTO
CRISTALINA,2026-06-22,0.0,6,6,0,1,0.0132176447915789,-16.729108968671913,-47.51949739378938,4.318181818181818,0.9083941628175418,ALTO
LUZIÂNIA,2026-06-22,0.0,6,6,0,1,0.0070248965167913,-16.41158591502055,-47.9402484582945,3.549504950495049,0.9017802386105996,ALTO
FORMOSA,2026-06-22,0.0,5,6,0,1,0.0326974450760009,-15.366385635807053,-47.255312528185605,4.150837988826815,0.8936094706454344,ALTO
IPAMERI,2026-06-22,0.0,7,6,0,1,0.0082203250915953,-17.453901960073118,-47.994679662267664,5.139896373056994,0.8811935088337148,ALTO
PORANGATU,2026-06-22,0.0,4,6,0,1,0.0130825222287691,-13.295151272205969,-49.25062116604489,8.9,0.877471092516743,ALTO
SÃO JOÃO D'ALIANÇA,2026-06-22,0.0,5,6,0,1,0.0174500083436336,-14.47092130372994,-47.44566869827519,4.917582417582418,0.8632675653230779,ALTO
NOVA CRIXÁS,2026-06-22,0.0,5,6,0,1,0.0140461011602819,-14.109081491545986,-50.60644025233707,11.0,0.8599299187027489,ALTO
PLANALTINA,2026-06-22,0.0,5,6,0,1,0.0220286696113048,-15.297339114149969,-47.82804373552916,6.205128205128205,0.859563003427585,ALTO
FLORES DE GOIÁS,2026-06-22,0.0,5,6,0,1,0.0204832514475835,-14.69582900883936,-46.88334718801356,4.961538461538462,0.8332524725002343,ALTO
PADRE BERNARDO,2026-06-22,0.0,5,6,0,1,0.0171465363583066,-15.387542873502616,-48.24234321428453,3.821138211382114,0.8037540699219964,ALTO
SÃO MIGUEL DO ARAGUAIA,2026-06-22,0.0,4,6,0,1,0.0108009445288652,-13.03457954651454,-50.31087167757311,5.801418439716312,0.7975884751925605,ALTO
RIO VERDE,2026-06-22,0.3,0,6,0,1,0.020077883759154,-17.80973337888139,-51.01793797116709,5.575418994413408,0.7909488970067993,ALTO
MONTE ALEGRE DE GOIÁS,2026-06-22,0.0,6,6,0,1,0.0256814090551314,-13.350813143278856,-46.98514054795142,5.746268656716418,0.7878494082567252,ALTO
